Time,header.seq,header.stamp.secs,header.stamp.nsecs,header.frame_id,latitude.data,longitude.data,altitude.data,utm_easting.data,utm_northing.data,zone_num.data,zone_letter.data,quality.data
1646352755.2037828,675,0,0,,42.33715833333334,-71.08955,9.4,327861.33967358735,4689326.155386082,19.0,T,0
1646352756.1992383,676,0,0,,42.33718333333333,-71.08956,9.5,327860.584047933,4689328.951689871,19.0,T,0
1646352757.1988676,677,0,0,,42.33721,-71.08956833333333,9.6,327859.9702775943,4689331.929690348,19.0,T,0
1646352758.1994607,678,0,0,,42.33723666666667,-71.08957833333334,9.7,327859.2192010677,4689334.911064984,19.0,T,0
1646352759.199614,679,0,0,,42.337266666666665,-71.08958833333334,9.9,327858.4772209088,4689338.262581009,19.0,T,0
1646352760.2018743,680,0,0,,42.337295,-71.08959999999999,10.1,327857.5933870692,4689341.432400623,19.0,T,0
1646352761.2034678,681,0,0,,42.337323333333345,-71.08961,10.3,327856.8468607445,4689344.598846259,19.0,T,0
1646352762.2000942,682,0,0,,42.33735166666668,-71.08962166666667,10.5,327855.9630286528,4689347.768666154,19.0,T,0
1646352763.200729,683,0,0,,42.33738166666667,-71.08963166666668,10.5,327855.2210518762,4689351.120182675,19.0,T,0
1646352764.2028382,684,0,0,,42.33741333333334,-71.08964333333334,10.7,327854.34631745727,4689354.660144142,19.0,T,0
1646352765.2014267,685,0,0,,42.33744333333333,-71.08965666666666,10.9,327853.3297297305,4689358.01840932,19.0,T,0
1646352766.1989384,686,0,0,,42.33746333333333,-71.089665,11.0,327852.69777395495,4689360.25612814,19.0,T,0
1646352767.199527,687,0,0,,42.337471666666666,-71.08966833333335,11.1,327852.4459013715,4689361.188229818,19.0,T,0
1646352768.197719,688,0,0,,42.33747499999999,-71.08967166666667,11.3,327852.18038482364,4689361.565119567,19.0,T,0
1646352769.2054613,689,0,0,,42.33747833333333,-71.08967333333334,11.4,327852.05217457726,4689361.938635093,19.0,T,0
1646352770.2013354,690,0,0,,42.33747833333333,-71.08967333333334,11.4,327852.05217457726,4689361.938635093,19.0,T,0
1646352771.2021756,691,0,0,,42.33747666666667,-71.08967333333334,11.4,327852.0476265587,4689361.753564445,19.0,T,0
1646352772.2025516,692,0,0,,42.33747666666667,-71.08967333333334,11.4,327852.0476265587,4689361.753564445,19.0,T,0
1646352773.2008758,693,0,0,,42.33747666666667,-71.08967333333334,11.3,327852.0476265587,4689361.753564445,19.0,T,0
1646352774.2037575,694,0,0,,42.33747833333333,-71.08967166666667,11.1,327852.1894808534,4689361.935260861,19.0,T,0
1646352775.2048945,695,0,0,,42.33748333333333,-71.08967333333334,10.9,327852.0658186339,4689362.493847036,19.0,T,0
1646352776.2026625,696,0,0,,42.33749666666667,-71.08967833333332,10.7,327851.69028408686,4689363.984534929,19.0,T,0
1646352777.1991878,697,0,0,,42.337518333333335,-71.08968499999999,10.5,327851.20018375426,4689366.403950341,19.0,T,0
1646352778.1997948,698,0,0,,42.33754999999999,-71.08969666666668,10.4,327850.3254538501,4689369.943912505,19.0,T,0
1646352779.1992834,699,0,0,,42.337585,-71.08971,10.3,327849.32251513447,4689373.857390418,19.0,T,0
1646352780.2010114,700,0,0,,42.337626666666665,-71.08972499999999,10.2,327848.20046431036,4689378.514525452,19.0,T,0
1646352781.202874,701,0,0,,42.337669999999996,-71.08974333333335,10.3,327846.808351671,4689383.363480088,19.0,T,0
1646352782.2197075,702,0,0,,42.337716666666665,-71.08976166666666,10.4,327845.42533767386,4689388.582576402,19.0,T,0
1646352783.2035136,703,0,0,,42.337763333333335,-71.08978166666668,10.6,327843.9050203683,4689393.8050475,19.0,T,0
1646352784.2163033,704,0,0,,42.33781166666666,-71.08979999999998,10.9,327842.52655949816,4689399.209215249,19.0,T,0
1646352785.199277,705,0,0,,42.337860000000006,-71.08981333333334,11.4,327841.56001739507,4689404.603259975,19.0,T,0
1646352786.1988764,706,0,0,,42.33790666666667,-71.08982499999999,12.0,327840.7262340548,4689409.808859773,19.0,T,0
1646352787.1995952,707,0,0,,42.33795833333334,-71.08983833333335,12.2,327839.76879226544,4689415.57304624,19.0,T,0
1646352788.2006726,708,0,0,,42.33800333333333,-71.08985,13.1,327838.9304637426,4689420.593575751,19.0,T,0
1646352789.1958764,709,0,0,,42.33805000000001,-71.08985833333334,13.5,327838.3712952335,4689425.792427019,19.0,T,0
1646352790.1983056,710,0,0,,42.338096666666665,-71.08986666666668,14.0,327837.81212785747,4689430.991278394,19.0,T,0
1646352791.1997235,711,0,0,,42.33814166666666,-71.08987833333333,14.3,327836.9738034352,4689436.011808349,19.0,T,0
1646352792.200156,712,0,0,,42.338186666666665,-71.08989166666666,14.7,327835.9981757549,4689441.035713071,19.0,T,0
1646352793.1993203,713,0,0,,42.33823,-71.08990666666666,15.3,327834.8806965234,4689445.877921953,19.0,T,0
1646352794.1999235,714,0,0,,42.338281666666674,-71.08993000000001,14.6,327833.0994396026,4689451.6623577075,19.0,T,0
1646352795.1998956,715,0,0,,42.33833,-71.089955,14.3,327831.17178414145,4689457.080027397,19.0,T,0
1646352796.1972885,716,0,0,,42.33837666666667,-71.08997833333332,14.7,327829.37688751926,4689462.309252335,19.0,T,0
1646352797.2023916,717,0,0,,42.33842500000001,-71.09,14.9,327827.72384688095,4689467.7201737575,19.0,T,0
1646352798.2014813,718,0,0,,42.33847166666666,-71.09002333333332,15.2,327825.92895612994,4689472.949399817,19.0,T,0
1646352799.2017453,719,0,0,,42.338523333333335,-71.09004666666667,15.4,327824.14771510445,4689478.733838499,19.0,T,0
1646352800.199471,720,0,0,,42.33858,-71.09007333333334,14.9,327822.1055165484,4689485.080239595,19.0,T,0
1646352801.200764,721,0,0,,42.33863833333333,-71.09010166666667,14.4,327819.9305674104,4689491.615087077,19.0,T,0
1646352802.198208,722,0,0,,42.338695,-71.09013333333333,14.7,327817.47646639444,4689497.971614705,19.0,T,0
1646352803.1996598,723,0,0,,42.33875333333333,-71.09016666666668,14.8,327814.88961593347,4689504.516589115,19.0,T,0
1646352804.1970162,724,0,0,,42.33881500000001,-71.09020333333332,15.1,327812.0372625642,4689511.438456273,19.0,T,0
1646352805.203556,725,0,0,,42.338878333333334,-71.09023666666667,15.1,327809.4640711291,4689518.538645196,19.0,T,0
1646352806.1994355,726,0,0,,42.338943333333326,-71.09026999999999,15.1,327806.89543487283,4689525.823905986,19.0,T,0
1646352807.203389,727,0,0,,42.33900666666666,-71.09030166666666,15.1,327804.4595579201,4689532.920721991,19.0,T,0
1646352808.2027001,728,0,0,,42.33907166666667,-71.09032499999999,14.7,327802.71475005813,4689540.185733209,19.0,T,0
1646352809.2015295,729,0,0,,42.33913833333333,-71.09034499999999,13.8,327801.2491013465,4689547.629065066,19.0,T,0
1646352810.2023578,730,0,0,,42.3392,-71.09037166666668,13.2,327799.2205971986,4689554.530686798,19.0,T,0
1646352811.2046332,731,0,0,,42.339258333333326,-71.09039666666666,12.8,327797.32030044566,4689561.05879247,19.0,T,0
1646352812.2058823,732,0,0,,42.33931166666667,-71.09042166666667,12.6,327795.40635824704,4689567.031686705,19.0,T,0
1646352813.2036784,733,0,0,,42.339360000000006,-71.09044333333333,12.6,327793.75337443996,4689572.442618481,19.0,T,0
1646352814.2030153,734,0,0,,42.33940166666666,-71.09046333333335,12.7,327792.21949593123,4689577.109892393,19.0,T,0
1646352815.2040927,735,0,0,,42.33943500000001,-71.09048,12.8,327790.9374739525,4689580.8450620575,19.0,T,0
1646352816.2030644,736,0,0,,42.33945999999999,-71.09049333333334,13.0,327789.9073074737,4689583.648127285,19.0,T,0
1646352817.2045112,737,0,0,,42.33948166666667,-71.09049833333333,13.4,327789.55455146526,4689586.064173302,19.0,T,0
1646352818.2042818,738,0,0,,42.33949166666666,-71.09049999999999,13.8,327789.44454952335,4689587.177973167,19.0,T,0
1646352819.2055,739,0,0,,42.339488333333335,-71.09049833333333,13.5,327789.5727514344,4689586.804456152,19.0,T,0
1646352820.2038789,740,0,0,,42.33948666666667,-71.09049833333333,13.5,327789.5682014419,4689586.61938544,19.0,T,0
1646352821.2057352,741,0,0,,42.339488333333335,-71.09049833333333,13.5,327789.5727514344,4689586.804456152,19.0,T,0
1646352822.2037895,742,0,0,,42.339488333333335,-71.09049833333333,13.5,327789.5727514344,4689586.804456152,19.0,T,0
1646352823.2064807,743,0,0,,42.339488333333335,-71.09049833333333,13.5,327789.5727514344,4689586.804456152,19.0,T,0
1646352824.2048273,744,0,0,,42.339488333333335,-71.09049833333333,13.5,327789.5727514344,4689586.804456152,19.0,T,0
1646352825.204169,745,0,0,,42.339488333333335,-71.09049833333333,13.6,327789.5727514344,4689586.804456152,19.0,T,0
1646352826.2037642,746,0,0,,42.339488333333335,-71.09049833333333,13.6,327789.5727514344,4689586.804456152,19.0,T,0
1646352827.2039387,747,0,0,,42.339488333333335,-71.09049833333333,13.6,327789.5727514344,4689586.804456152,19.0,T,0
1646352828.2057545,748,0,0,,42.339488333333335,-71.09049833333333,13.6,327789.5727514344,4689586.804456152,19.0,T,0
1646352829.2024124,749,0,0,,42.339488333333335,-71.09049833333333,13.6,327789.5727514344,4689586.804456152,19.0,T,0
1646352830.1989694,750,0,0,,42.339488333333335,-71.09049833333333,13.6,327789.5727514344,4689586.804456152,19.0,T,0
1646352831.202942,751,0,0,,42.33948666666667,-71.09049833333333,13.6,327789.5682014419,4689586.61938544,19.0,T,0
1646352832.2187207,752,0,0,,42.33948666666667,-71.09049833333333,13.6,327789.5682014419,4689586.61938544,19.0,T,0
1646352833.200953,753,0,0,,42.33948666666667,-71.09049833333333,13.6,327789.5682014419,4689586.61938544,19.0,T,0
1646352834.200086,754,0,0,,42.33948666666667,-71.09049833333333,13.6,327789.5682014419,4689586.61938544,19.0,T,0
1646352835.2195964,755,0,0,,42.33948666666667,-71.09049833333333,13.6,327789.5682014419,4689586.61938544,19.0,T,0
1646352836.2031674,756,0,0,,42.33948666666667,-71.09049833333333,13.6,327789.5682014419,4689586.61938544,19.0,T,0
1646352837.2018392,757,0,0,,42.33948666666667,-71.09049833333333,13.6,327789.5682014419,4689586.61938544,19.0,T,0
1646352838.2016037,758,0,0,,42.33948666666667,-71.09049833333333,13.6,327789.5682014419,4689586.61938544,19.0,T,0
1646352839.2024796,759,0,0,,42.33948666666667,-71.09049833333333,13.6,327789.5682014419,4689586.61938544,19.0,T,0
1646352840.2022693,760,0,0,,42.33948666666667,-71.09049833333333,13.6,327789.5682014419,4689586.61938544,19.0,T,0
1646352841.2027225,761,0,0,,42.33948666666667,-71.09049833333333,13.6,327789.5682014419,4689586.61938544,19.0,T,0
1646352842.2015922,762,0,0,,42.33948666666667,-71.09049833333333,13.6,327789.5682014419,4689586.61938544,19.0,T,0
1646352843.2031608,763,0,0,,42.33948666666667,-71.09049833333333,13.6,327789.5682014419,4689586.61938544,19.0,T,0
1646352844.2031107,764,0,0,,42.33948666666667,-71.09049833333333,13.6,327789.5682014419,4689586.61938544,19.0,T,0
1646352845.2035222,765,0,0,,42.33948666666667,-71.09049833333333,13.6,327789.5682014419,4689586.61938544,19.0,T,0
1646352846.202751,766,0,0,,42.33948666666667,-71.09049833333333,13.6,327789.5682014419,4689586.61938544,19.0,T,0
1646352847.2061186,767,0,0,,42.33948666666667,-71.09049833333333,13.6,327789.5682014419,4689586.61938544,19.0,T,0
1646352848.2036374,768,0,0,,42.33948666666667,-71.09049833333333,13.6,327789.5682014419,4689586.61938544,19.0,T,0
1646352849.2027738,769,0,0,,42.33948666666667,-71.09049833333333,13.6,327789.5682014419,4689586.61938544,19.0,T,0
1646352850.2030044,770,0,0,,42.33948666666667,-71.09049833333333,13.6,327789.5682014419,4689586.61938544,19.0,T,0
1646352851.2019265,771,0,0,,42.33948666666667,-71.09049833333333,13.6,327789.5682014419,4689586.61938544,19.0,T,0
1646352852.202896,772,0,0,,42.33948666666667,-71.09049833333333,13.6,327789.5682014419,4689586.61938544,19.0,T,0
1646352853.202368,773,0,0,,42.33948666666667,-71.09049833333333,13.6,327789.5682014419,4689586.61938544,19.0,T,0
1646352854.1998286,774,0,0,,42.33948666666667,-71.09049833333333,13.6,327789.5682014419,4689586.61938544,19.0,T,0
1646352855.2022967,775,0,0,,42.33948666666667,-71.09049833333333,13.6,327789.5682014419,4689586.61938544,19.0,T,0
1646352856.2031736,776,0,0,,42.33948666666667,-71.09049833333333,13.6,327789.5682014419,4689586.61938544,19.0,T,0
1646352857.201958,777,0,0,,42.33948666666667,-71.09049833333333,13.6,327789.5682014419,4689586.61938544,19.0,T,0
1646352858.20165,778,0,0,,42.33948666666667,-71.09049833333333,13.6,327789.5682014419,4689586.61938544,19.0,T,0
1646352859.1999013,779,0,0,,42.33948666666667,-71.09049833333333,13.6,327789.5682014419,4689586.61938544,19.0,T,0
1646352860.2022202,780,0,0,,42.33948666666667,-71.09049833333333,13.6,327789.5682014419,4689586.61938544,19.0,T,0
1646352861.20173,781,0,0,,42.33948666666667,-71.09049833333333,13.6,327789.5682014419,4689586.61938544,19.0,T,0
1646352862.2014492,782,0,0,,42.33948666666667,-71.09049833333333,13.6,327789.5682014419,4689586.61938544,19.0,T,0
1646352863.2031465,783,0,0,,42.33948666666667,-71.09049833333333,13.7,327789.5682014419,4689586.61938544,19.0,T,0
1646352864.2016568,784,0,0,,42.33948666666667,-71.09049833333333,13.7,327789.5682014419,4689586.61938544,19.0,T,0
1646352865.2026932,785,0,0,,42.33948666666667,-71.09049833333333,13.7,327789.5682014419,4689586.61938544,19.0,T,0
1646352866.2015634,786,0,0,,42.33948666666667,-71.09049833333333,13.7,327789.5682014419,4689586.61938544,19.0,T,0
1646352867.2033122,787,0,0,,42.33947833333334,-71.09049666666667,13.3,327789.68275340495,4689585.690656289,19.0,T,0
1646352868.2025902,788,0,0,,42.33947833333334,-71.09049666666667,13.1,327789.68275340495,4689585.690656289,19.0,T,0
1646352869.2024417,789,0,0,,42.33949,-71.09050166666665,13.0,327789.302697631,4689586.996278048,19.0,T,0
1646352870.2013392,790,0,0,,42.339510000000004,-71.09051166666666,13.0,327788.53348650824,4689589.237380222,19.0,T,0
1646352871.202661,791,0,0,,42.33953499999999,-71.09052166666667,12.9,327787.7779260708,4689592.0336946435,19.0,T,0
1646352872.2010171,792,0,0,,42.339561666666675,-71.09052666666666,12.8,327787.4388216216,4689595.004952977,19.0,T,0
1646352873.2011912,793,0,0,,42.339589999999994,-71.09052333333334,12.7,327787.7907760364,4689598.144403874,19.0,T,0
1646352874.2026892,794,0,0,,42.33961833333333,-71.09050666666667,12.7,327789.2411432031,4689601.256849881,19.0,T,0
1646352875.2024775,795,0,0,,42.33964500000001,-71.09047499999998,12.7,327791.9226732399,4689604.153845364,19.0,T,0
1646352876.2027555,796,0,0,,42.33966999999999,-71.09042833333332,12.7,327795.83536476677,4689606.835391689,19.0,T,0
1646352877.2024019,797,0,0,,42.339695,-71.09037,12.7,327800.70916342025,4689609.493312372,19.0,T,0
1646352878.1986191,798,0,0,,42.339724999999994,-71.09029833333334,12.6,327806.6950181801,4689612.679446265,19.0,T,0
1646352879.2024493,799,0,0,,42.33976333333333,-71.09022166666668,12.6,327813.1155183683,4689616.780813267,19.0,T,0
1646352880.1992564,800,0,0,,42.339805,-71.09013666666665,12.5,327820.2316154722,4689621.23545232,19.0,T,0
1646352881.2066178,801,0,0,,42.339846666666666,-71.09004666666667,12.5,327827.7596067239,4689625.679973761,19.0,T,0
1646352882.2017703,802,0,0,,42.339888333333334,-71.08995166666668,12.6,327835.6994912998,4689630.114378893,19.0,T,0
1646352883.2196872,803,0,0,,42.33992833333334,-71.08985833333334,12.6,327843.4975160047,4689634.367096597,19.0,T,0
1646352884.201646,804,0,0,,42.33996666666667,-71.08976333333334,12.6,327851.42828340654,4689638.4313776,19.0,T,0
1646352885.2022047,805,0,0,,42.34000833333332,-71.08966333333333,12.6,327859.7800400695,4689642.85568602,19.0,T,0
1646352886.213948,806,0,0,,42.340050000000005,-71.08956333333334,12.7,327868.13178587874,4689647.280004115,19.0,T,0
1646352887.2069552,807,0,0,,42.34009,-71.08945999999999,12.5,327876.7535742144,4689651.512513321,19.0,T,0
1646352888.2011776,808,0,0,,42.34013,-71.089355,12.3,327885.5126522694,4689655.741659108,19.0,T,0
1646352889.2009797,809,0,0,,42.34017166666666,-71.08925333333333,12.3,327894.0016658988,4689660.162633438,19.0,T,0
1646352890.1998556,810,0,0,,42.34021333333333,-71.08914999999999,12.3,327902.6279688043,4689664.580244346,19.0,T,0
1646352891.1992755,811,0,0,,42.340255,-71.089045,12.3,327911.39156071306,4689668.994492331,19.0,T,0
1646352892.1991022,812,0,0,,42.34029833333334,-71.08893833333335,12.4,327920.2969880109,4689673.590448622,19.0,T,0
1646352893.1980863,813,0,0,,42.34034166666667,-71.08883333333333,12.4,327929.0651032399,4689678.189788823,19.0,T,0
1646352894.2070792,814,0,0,,42.340385,-71.08872833333332,12.5,327937.8332066174,4689682.789139686,19.0,T,0
1646352895.2017283,815,0,0,,42.34042833333333,-71.088625,12.5,327946.4639983031,4689687.391873783,19.0,T,0
1646352896.2001607,816,0,0,,42.34047000000001,-71.08852333333333,12.5,327954.9529328091,4689691.812919899,19.0,T,0
1646352897.2007732,817,0,0,,42.34051333333333,-71.08842166666668,12.5,327963.446401838,4689696.419046724,19.0,T,0
1646352898.1973038,818,0,0,,42.34055166666667,-71.08832000000001,12.2,327971.926223374,4689700.469971395,19.0,T,0
1646352899.1984212,819,0,0,,42.340590000000006,-71.08821833333333,12.2,327980.4060347513,4689704.520906063,19.0,T,0
1646352900.1981533,820,0,0,,42.340628333333335,-71.08811833333333,12.1,327988.748536563,4689708.57522248,19.0,T,0
1646352901.1984103,821,0,0,,42.34066666666666,-71.08802166666666,12.1,327996.81642975257,4689712.636291761,19.0,T,0
1646352902.1946805,822,0,0,,42.34070333333334,-71.08792666666668,12.0,328004.74246955715,4689716.515670808,19.0,T,0
1646352903.198325,823,0,0,,42.34073833333333,-71.08783833333335,11.9,328012.1147593589,4689720.223473054,19.0,T,0
1646352904.2001772,824,0,0,,42.34077000000001,-71.08776,11.9,328018.6541583448,4689723.581368426,19.0,T,0
1646352905.2025037,825,0,0,,42.34079666666667,-71.08769000000001,11.8,328024.49342381314,4689726.400912861,19.0,T,0
1646352906.193033,826,0,0,,42.34082,-71.08762833333333,11.8,328029.63710184797,4689728.867175389,19.0,T,0
1646352907.2011044,827,0,0,,42.34084166666666,-71.08757499999999,11.8,328034.0897377595,4689731.165225236,19.0,T,0
1646352908.202574,828,0,0,,42.34086166666666,-71.087525,11.8,328038.2632292564,4689733.284948706,19.0,T,0
1646352909.1996975,829,0,0,,42.34087833333333,-71.08748,11.8,328042.01573454717,4689735.044645323,19.0,T,0
1646352910.2024722,830,0,0,,42.340896666666666,-71.08743333333332,11.8,328045.9100801337,4689736.986043965,19.0,T,0
1646352911.2022014,831,0,0,,42.340915,-71.08738666666666,11.8,328049.8044234883,4689738.927444714,19.0,T,0
1646352912.201899,832,0,0,,42.34093500000001,-71.08733500000001,11.8,328054.1152040245,4689741.043806799,19.0,T,0
1646352913.2030015,833,0,0,,42.34095666666667,-71.08728,11.7,328058.7051223398,4689743.338501374,19.0,T,0
1646352914.2065675,834,0,0,,42.340981666666664,-71.08721666666666,11.9,328063.99061664235,4689745.986488772,19.0,T,0
1646352915.2061634,835,0,0,,42.341013333333336,-71.08714833333333,12.0,328069.70617382793,4689749.364652339,19.0,T,0
1646352916.212518,836,0,0,,42.341045,-71.08707333333334,12.1,328075.97091931326,4689752.729340123,19.0,T,0
1646352917.2054782,837,0,0,,42.34107666666667,-71.08699333333335,12.2,328082.6475538573,4689756.08392351,19.0,T,0
1646352918.2058904,838,0,0,,42.34110999999999,-71.08691666666667,12.3,328089.0541274429,4689759.630323434,19.0,T,0
1646352919.2034907,839,0,0,,42.34114666666666,-71.08684666666667,12.3,328094.920585673,4689763.560349282,19.0,T,0
1646352920.2075424,840,0,0,,42.34118000000001,-71.08678666666665,12.4,328099.9541640576,4689767.140456033,19.0,T,0
1646352921.2029412,841,0,0,,42.34121166666667,-71.086735,12.3,328104.2967047414,4689770.552343138,19.0,T,0
1646352922.2061024,842,0,0,,42.34123666666666,-71.08669666666667,12.2,328107.52268935426,4689773.250905565,19.0,T,0
1646352923.2045155,843,0,0,,42.341256666666666,-71.08666666666666,12.2,328110.04855605384,4689775.411104302,19.0,T,0
1646352924.2083807,844,0,0,,42.34127,-71.08664833333334,12.2,328111.5951683336,4689776.854606659,19.0,T,0
1646352925.2096186,845,0,0,,42.34127833333334,-71.08663833333334,12.2,328112.4416649652,4689777.759743997,19.0,T,0
1646352926.2122495,846,0,0,,42.34128166666667,-71.086635,12.2,328112.72534437006,4689778.123146702,19.0,T,0
1646352927.2109256,847,0,0,,42.34128166666667,-71.08663166666668,12.2,328112.99994029745,4689778.116407979,19.0,T,0
1646352928.2195485,848,0,0,,42.34128166666667,-71.08663333333334,12.2,328112.8626423348,4689778.1197773395,19.0,T,0
1646352929.2105598,849,0,0,,42.34128166666667,-71.08663333333334,12.2,328112.8626423348,4689778.1197773395,19.0,T,0
1646352930.2105258,850,0,0,,42.34128166666667,-71.08663333333334,12.2,328112.8626423348,4689778.1197773395,19.0,T,0
1646352931.2103503,851,0,0,,42.34128166666667,-71.08663333333334,12.2,328112.8626423348,4689778.1197773395,19.0,T,0
1646352932.2104998,852,0,0,,42.34128166666667,-71.08663333333334,12.2,328112.8626423348,4689778.1197773395,19.0,T,0
1646352933.2286994,853,0,0,,42.34128166666667,-71.08663333333334,12.2,328112.8626423348,4689778.1197773395,19.0,T,0
1646352934.210161,854,0,0,,42.34128166666667,-71.08663333333334,12.2,328112.8626423348,4689778.1197773395,19.0,T,0
1646352935.211115,855,0,0,,42.34128166666667,-71.08663333333334,12.2,328112.8626423348,4689778.1197773395,19.0,T,0
1646352936.203422,856,0,0,,42.34128166666667,-71.08663333333334,12.2,328112.8626423348,4689778.1197773395,19.0,T,0
1646352937.2287269,857,0,0,,42.34128166666667,-71.08663333333334,12.2,328112.8626423348,4689778.1197773395,19.0,T,0
1646352938.2126102,858,0,0,,42.34128166666667,-71.08663333333334,12.3,328112.8626423348,4689778.1197773395,19.0,T,0
1646352939.2106724,859,0,0,,42.34128166666667,-71.08663333333334,12.3,328112.8626423348,4689778.1197773395,19.0,T,0
1646352940.211067,860,0,0,,42.34128166666667,-71.08663333333334,12.3,328112.8626423348,4689778.1197773395,19.0,T,0
1646352941.2036703,861,0,0,,42.34128166666667,-71.08663333333334,12.3,328112.8626423348,4689778.1197773395,19.0,T,0
1646352942.2065208,862,0,0,,42.34128166666667,-71.08663333333334,12.3,328112.8626423348,4689778.1197773395,19.0,T,0
1646352943.2125025,863,0,0,,42.34128166666667,-71.08663333333334,12.3,328112.8626423348,4689778.1197773395,19.0,T,0
1646352944.2067275,864,0,0,,42.34128166666667,-71.08663333333334,12.3,328112.8626423348,4689778.1197773395,19.0,T,0
1646352945.2092931,865,0,0,,42.34128166666667,-71.08663333333334,12.3,328112.8626423348,4689778.1197773395,19.0,T,0
1646352946.2067454,866,0,0,,42.34128166666667,-71.08663333333334,12.3,328112.8626423348,4689778.1197773395,19.0,T,0
1646352947.2063272,867,0,0,,42.34128166666667,-71.08663333333334,12.3,328112.8626423348,4689778.1197773395,19.0,T,0
1646352948.2043996,868,0,0,,42.34128166666667,-71.08663333333334,12.3,328112.8626423348,4689778.1197773395,19.0,T,0
1646352949.2138455,869,0,0,,42.34128166666667,-71.08663333333334,12.3,328112.8626423348,4689778.1197773395,19.0,T,0
1646352950.2099268,870,0,0,,42.34128166666667,-71.08663333333334,12.3,328112.8626423348,4689778.1197773395,19.0,T,0
1646352951.2104867,871,0,0,,42.34128166666667,-71.08663333333334,12.3,328112.8626423348,4689778.1197773395,19.0,T,0
1646352952.2088397,872,0,0,,42.34128166666667,-71.08663333333334,12.3,328112.8626423348,4689778.1197773395,19.0,T,0
1646352953.2098918,873,0,0,,42.34128166666667,-71.08663333333334,12.3,328112.8626423348,4689778.1197773395,19.0,T,0
1646352954.2099328,874,0,0,,42.34128166666667,-71.08663333333334,12.3,328112.8626423348,4689778.1197773395,19.0,T,0
1646352955.2060192,875,0,0,,42.34128166666667,-71.08663333333334,12.3,328112.8626423348,4689778.1197773395,19.0,T,0
1646352956.2070606,876,0,0,,42.341280000000005,-71.08663333333334,12.3,328112.8581006059,4689777.93470662,19.0,T,0
1646352957.2095597,877,0,0,,42.341280000000005,-71.08663166666668,12.3,328112.9953985721,4689777.93133726,19.0,T,0
1646352958.21327,878,0,0,,42.341280000000005,-71.08663166666668,12.3,328112.9953985721,4689777.93133726,19.0,T,0
1646352959.2134252,879,0,0,,42.341280000000005,-71.08663166666668,12.3,328112.9953985721,4689777.93133726,19.0,T,0
1646352960.2042432,880,0,0,,42.341280000000005,-71.08663166666668,12.4,328112.9953985721,4689777.93133726,19.0,T,0
1646352961.213647,881,0,0,,42.341280000000005,-71.08663166666668,12.4,328112.9953985721,4689777.93133726,19.0,T,0
1646352962.2126062,882,0,0,,42.341280000000005,-71.08663166666668,12.4,328112.9953985721,4689777.93133726,19.0,T,0
1646352963.2146895,883,0,0,,42.341280000000005,-71.08663166666668,12.4,328112.9953985721,4689777.93133726,19.0,T,0
1646352964.211741,884,0,0,,42.341280000000005,-71.08663166666668,12.4,328112.9953985721,4689777.93133726,19.0,T,0
1646352965.2025666,885,0,0,,42.341280000000005,-71.08663166666668,12.4,328112.9953985721,4689777.93133726,19.0,T,0
1646352966.2080107,886,0,0,,42.34127833333334,-71.08663166666668,12.4,328112.9908568469,4689777.74626654,19.0,T,0
1646352967.2097626,887,0,0,,42.34127833333334,-71.08663166666668,12.4,328112.9908568469,4689777.74626654,19.0,T,0
1646352968.2080817,888,0,0,,42.34127833333334,-71.08663166666668,12.4,328112.9908568469,4689777.74626654,19.0,T,0
1646352969.2033145,889,0,0,,42.34127833333334,-71.08663166666668,12.4,328112.9908568469,4689777.74626654,19.0,T,0
1646352970.207855,890,0,0,,42.34127833333334,-71.08663166666668,12.5,328112.9908568469,4689777.74626654,19.0,T,0
1646352971.2033498,891,0,0,,42.34128166666667,-71.08663166666668,12.7,328112.99994029745,4689778.116407979,19.0,T,0
1646352972.206654,892,0,0,,42.341286666666676,-71.08662833333332,12.9,328113.28816138196,4689778.66488143,19.0,T,0
1646352973.2068186,893,0,0,,42.34129500000001,-71.08662166666667,13.1,328113.860061713,4689779.576757641,19.0,T,0
1646352974.2035844,894,0,0,,42.34131000000001,-71.08660833333333,13.4,328114.99932027666,4689781.2154394705,19.0,T,0
1646352975.2045958,895,0,0,,42.34133166666667,-71.086585,13.6,328116.98053204885,4689783.57418861,19.0,T,0
1646352976.2076283,896,0,0,,42.341355,-71.08655666666667,13.7,328119.37817751156,4689786.107901271,19.0,T,0
1646352977.2076216,897,0,0,,42.341375,-71.08653666666667,13.9,328121.0802494568,4689788.288319265,19.0,T,0
1646352978.2081072,898,0,0,,42.34139,-71.08652333333333,14.1,328122.2195050146,4689789.927002199,19.0,T,0
1646352979.2031567,899,0,0,,42.34140333333333,-71.08651833333334,14.6,328122.6677301023,4689791.397460437,19.0,T,0
1646352980.2053146,900,0,0,,42.34141333333333,-71.08651166666667,14.8,328123.2441697433,4689792.494408085,19.0,T,0
1646352981.2054696,901,0,0,,42.34142166666667,-71.08650166666666,14.9,328124.09066306835,4689793.399546751,19.0,T,0
1646352982.2039258,902,0,0,,42.341436666666674,-71.08648333333333,14.9,328125.6418100343,4689795.02812277,19.0,T,0
1646352983.2072194,903,0,0,,42.34146166666666,-71.08645166666668,15.0,328128.3185851154,4689797.740170808,19.0,T,0
1646352984.2258732,904,0,0,,42.341495,-71.08640666666668,15.0,328132.1164445442,4689801.350621374,19.0,T,0
1646352985.1992574,905,0,0,,42.34153166666666,-71.08635333333334,14.7,328136.6098695,4689805.314370761,19.0,T,0
1646352986.1946845,906,0,0,,42.34157166666667,-71.0863,14.5,328141.1123714578,4689809.648264351,19.0,T,0
1646352987.1985352,907,0,0,,42.34160833333333,-71.08625166666668,14.4,328145.1938943278,4689813.622125482,19.0,T,0
1646352988.2123926,908,0,0,,42.341636666666666,-71.08620499999999,14.2,328149.1154113215,4689816.67400392,19.0,T,0
1646352989.1951807,909,0,0,,42.341661666666674,-71.086165,14.0,328152.4786549071,4689819.369217427,19.0,T,0
1646352990.1980822,910,0,0,,42.34168166666666,-71.08613166666667,13.7,328155.2790855806,4689821.522694502,19.0,T,0
1646352991.196304,911,0,0,,42.341694999999994,-71.08610666666667,13.5,328157.37486683426,4689822.952732288,19.0,T,0
1646352992.1985013,912,0,0,,42.341705000000005,-71.08609,13.4,328158.7750809109,4689824.029471633,19.0,T,0
1646352993.1955607,913,0,0,,42.34171166666667,-71.08608,13.2,328159.6170253752,4689824.749543659,19.0,T,0
1646352994.1988976,914,0,0,,42.34171333333333,-71.08607333333333,13.0,328160.17075400875,4689824.92114052,19.0,T,0
1646352995.1987011,915,0,0,,42.34171333333333,-71.08606833333334,12.8,328160.5826450633,4689824.911035148,19.0,T,0
1646352996.192992,916,0,0,,42.34171166666667,-71.08606833333334,12.6,328160.5781045275,4689824.725964422,19.0,T,0
1646352997.2010472,917,0,0,,42.34171166666667,-71.08606666666665,12.5,328160.7154015528,4689824.72259597,19.0,T,0
1646352998.201962,918,0,0,,42.34171333333333,-71.08606499999999,12.7,328160.8572391003,4689824.904298249,19.0,T,0
1646352999.203556,919,0,0,,42.34171500000001,-71.08606166666667,12.9,328161.1363736587,4689825.082632085,19.0,T,0
1646353000.2104278,920,0,0,,42.341716666666656,-71.08606166666667,13.1,328161.1409141803,4689825.2677028105,19.0,T,0
1646353001.2103736,921,0,0,,42.34172,-71.08606166666667,13.3,328161.1499952239,4689825.6378442645,19.0,T,0
1646353002.2068014,922,0,0,,42.341721666666665,-71.08606,13.5,328161.2918327452,4689825.819546549,19.0,T,0
1646353003.2084897,923,0,0,,42.341726666666666,-71.08605833333331,13.6,328161.4427512917,4689826.371390291,19.0,T,0
1646353004.2030013,924,0,0,,42.34173166666667,-71.08605333333333,13.8,328161.8682637725,4689826.916497173,19.0,T,0
1646353005.2071447,925,0,0,,42.341738333333325,-71.08604666666666,14.0,328162.4356136485,4689827.643306384,19.0,T,0
1646353006.203201,926,0,0,,42.341748333333335,-71.08603833333335,14.2,328163.1493413035,4689828.736888689,19.0,T,0
1646353007.2034917,927,0,0,,42.34176666666667,-71.08602499999999,14.4,328164.29766173795,4689830.7457195325,19.0,T,0
1646353008.1998835,928,0,0,,42.34179166666666,-71.08600333333334,14.6,328166.15062745963,4689833.477991686,19.0,T,0
1646353009.2013676,929,0,0,,42.341818333333336,-71.08596999999999,14.7,328168.9692096759,4689836.371756896,19.0,T,0
1646353010.2041626,930,0,0,,42.34185333333333,-71.08593,15.1,328172.35967775,4689840.177403878,19.0,T,0
1646353011.2041945,931,0,0,,42.341895000000015,-71.08588500000002,15.5,328176.18019273673,4689844.713230848,19.0,T,0
1646353012.2020936,932,0,0,,42.34194333333333,-71.08583333333331,15.7,328180.5680491974,4689849.975870378,19.0,T,0
1646353013.2041407,933,0,0,,42.341995,-71.08577499999998,15.9,328185.5141647201,4689855.595182018,19.0,T,0
1646353014.2039082,934,0,0,,42.34204833333334,-71.085715,16.1,328190.60210856795,4689861.396199809,19.0,T,0
1646353015.2023046,935,0,0,,42.342101666666665,-71.08565166666668,16.2,328195.9646365189,4689867.190485523,19.0,T,0
1646353016.210591,936,0,0,,42.342155000000005,-71.08559166666667,16.3,328201.0525636658,4689872.9915105,19.0,T,0
1646353017.207014,937,0,0,,42.342205,-71.08552999999999,16.3,328206.2686997,4689878.419029915,19.0,T,0
1646353018.2051191,938,0,0,,42.342254999999994,-71.08547166666666,16.3,328211.2102361205,4689883.853288001,19.0,T,0
1646353019.1996589,939,0,0,,42.34230166666666,-71.08541333333334,16.2,328216.14268670464,4689888.917407922,19.0,T,0
1646353020.20014,940,0,0,,42.34234499999999,-71.085355,16.2,328221.06605219893,4689893.611389671,19.0,T,0
1646353021.2095368,941,0,0,,42.34238499999999,-71.08529666666665,16.2,328225.98033333896,4689897.935233246,19.0,T,0
1646353022.2098532,942,0,0,,42.34241999999999,-71.08524333333334,16.2,328230.46910565754,4689901.713969273,19.0,T,0
1646353023.2026987,943,0,0,,42.34245166666666,-71.08519833333334,16.1,328234.2623187617,4689905.139401822,19.0,T,0
1646353024.205408,944,0,0,,42.342479999999995,-71.08516166666666,16.1,328237.35997426166,4689908.211529803,19.0,T,0
1646353025.205339,945,0,0,,42.342506666666665,-71.08513333333333,16.2,328239.76661212044,4689911.115423068,19.0,T,0
1646353026.2106528,946,0,0,,42.342533333333336,-71.08511666666666,16.5,328241.2121814698,4689914.042885514,19.0,T,0
1646353027.2057014,947,0,0,,42.34255333333334,-71.08510333333334,16.7,328242.3650053326,4689916.236799079,19.0,T,0
1646353028.2027037,948,0,0,,42.34256666666666,-71.08509333333333,16.8,328243.22508430056,4689917.697163627,19.0,T,0
1646353029.206297,949,0,0,,42.342575000000004,-71.085085,16.9,328243.9342523983,4689918.605682926,19.0,T,0
1646353030.2105148,950,0,0,,42.34258,-71.08508166666668,17.0,328244.2224580478,4689919.154161404,19.0,T,0
1646353031.2028072,951,0,0,,42.34258,-71.08507999999999,17.0,328244.3597531709,4689919.150794538,19.0,T,0
1646353032.2031498,952,0,0,,42.34258,-71.08507999999999,17.0,328244.3597531709,4689919.150794538,19.0,T,0
1646353033.20939,953,0,0,,42.34258,-71.08507999999999,17.0,328244.3597531709,4689919.150794538,19.0,T,0
1646353034.2232318,954,0,0,,42.34258,-71.08507999999999,17.0,328244.3597531709,4689919.150794538,19.0,T,0
1646353035.2077794,955,0,0,,42.34258,-71.08507999999999,17.0,328244.3597531709,4689919.150794538,19.0,T,0
1646353036.2059424,956,0,0,,42.34258,-71.08507999999999,17.0,328244.3597531709,4689919.150794538,19.0,T,0
1646353037.2064822,957,0,0,,42.34258,-71.08507999999999,17.0,328244.3597531709,4689919.150794538,19.0,T,0
1646353038.2094612,958,0,0,,42.34258,-71.08507999999999,17.0,328244.3597531709,4689919.150794538,19.0,T,0
1646353039.225098,959,0,0,,42.34258,-71.08507999999999,17.0,328244.3597531709,4689919.150794538,19.0,T,0
1646353040.208295,960,0,0,,42.34258,-71.08507999999999,17.0,328244.3597531709,4689919.150794538,19.0,T,0
1646353041.2080245,961,0,0,,42.34258,-71.08507999999999,17.0,328244.3597531709,4689919.150794538,19.0,T,0
1646353042.2075016,962,0,0,,42.34258,-71.08507999999999,17.0,328244.3597531709,4689919.150794538,19.0,T,0
1646353043.2024727,963,0,0,,42.34258,-71.08507999999999,17.0,328244.3597531709,4689919.150794538,19.0,T,0
1646353044.2035513,964,0,0,,42.34258,-71.08507999999999,17.0,328244.3597531709,4689919.150794538,19.0,T,0
1646353045.2098672,965,0,0,,42.34258,-71.08507999999999,17.0,328244.3597531709,4689919.150794538,19.0,T,0
1646353046.2081718,966,0,0,,42.34257666666667,-71.08507833333333,17.1,328244.4879713848,4689918.777286195,19.0,T,0
1646353047.2022877,967,0,0,,42.342575000000004,-71.08507666666667,17.1,328244.62072806223,4689918.588848595,19.0,T,0
1646353048.2024517,968,0,0,,42.342575000000004,-71.08507166666665,17.1,328245.0326134622,4689918.578748028,19.0,T,0
1646353049.2021613,969,0,0,,42.342575000000004,-71.085065,17.0,328245.5817939917,4689918.565280643,19.0,T,0
1646353050.2075093,970,0,0,,42.34257666666667,-71.08505833333334,16.9,328246.13551293185,4689918.736884042,19.0,T,0
1646353051.2031987,971,0,0,,42.34257833333333,-71.08505,16.9,328246.8265269714,4689918.905120663,19.0,T,0
1646353052.2075977,972,0,0,,42.34258333333334,-71.08504166666665,16.8,328247.5266177227,4689919.443498834,19.0,T,0
1646353053.2007575,973,0,0,,42.342593333333326,-71.08502499999999,17.0,328248.92679890106,4689920.520255372,19.0,T,0
1646353054.2001085,974,0,0,,42.34260833333333,-71.08500333333333,17.5,328250.7524797395,4689922.142124164,19.0,T,0
1646353055.2007983,975,0,0,,42.342628333333344,-71.08497833333332,17.9,328252.8663645142,4689924.312472224,19.0,T,0
1646353056.2002268,976,0,0,,42.34264499999999,-71.08495333333333,17.9,328254.9711716229,4689926.112679407,19.0,T,0
1646353057.207378,977,0,0,,42.34265999999999,-71.08492999999999,17.7,328256.9341445754,4689927.731183076,19.0,T,0
1646353058.2021437,978,0,0,,42.342671666666675,-71.08491000000002,17.6,328258.61345059576,4689928.986278973,19.0,T,0
1646353059.2022743,979,0,0,,42.34268166666667,-71.08488500000001,17.5,328260.7001026579,4689930.046204849,19.0,T,0
1646353060.205503,980,0,0,,42.342688333333335,-71.08484833333334,17.5,328263.73874228174,4689930.71242434,19.0,T,0
1646353061.20137,981,0,0,,42.34268166666667,-71.08479999999999,17.5,328267.70214248134,4689929.874514253,19.0,T,0
1646353062.2044919,982,0,0,,42.342663333333334,-71.08474500000001,17.5,328272.18295900535,4689927.727645946,19.0,T,0
1646353063.2021887,983,0,0,,42.342638333333326,-71.08468666666666,17.7,328276.92021769995,4689924.833765178,19.0,T,0
1646353064.1993892,984,0,0,,42.34260333333334,-71.084625,17.7,328281.90484549594,4689920.822731063,19.0,T,0
1646353065.1994581,985,0,0,,42.342561666666676,-71.08456166666666,17.8,328287.0086248141,4689916.068051723,19.0,T,0
1646353066.2013211,986,0,0,,42.34252,-71.08450166666667,18.1,328291.83782060514,4689911.320108188,19.0,T,0
1646353067.2019787,987,0,0,,42.342481666666664,-71.084445,18.8,328296.40150646376,4689906.949041336,19.0,T,0
1646353068.2027419,988,0,0,,42.34245,-71.08439166666666,19.6,328300.7087550249,4689903.324992064,19.0,T,0
1646353069.2017727,989,0,0,,42.34241999999999,-71.08434999999999,20.2,328304.059476615,4689899.909576033,19.0,T,0
1646353070.2026594,990,0,0,,42.34240166666667,-71.08431833333333,21.1,328306.6181858147,4689897.809850546,19.0,T,0
1646353071.202752,991,0,0,,42.34238833333333,-71.08429666666667,21.9,328308.3667334841,4689896.285531751,19.0,T,0
1646353072.2016747,992,0,0,,42.342378333333336,-71.08428166666666,22.7,328309.5751730715,4689895.144817137,19.0,T,0
1646353073.2024195,993,0,0,,42.342368333333326,-71.08427,23.3,328310.50902189995,4689894.0108338455,19.0,T,0
1646353074.2021482,994,0,0,,42.34236333333334,-71.08426166666666,24.2,328311.1818898141,4689893.43879394,19.0,T,0
1646353075.2029467,995,0,0,,42.34235666666666,-71.08425499999998,24.7,328311.71292559744,4689892.685048903,19.0,T,0
1646353076.201607,996,0,0,,42.34235666666666,-71.08425333333332,24.7,328311.85022119625,4689892.6816833755,19.0,T,0
1646353077.2023284,997,0,0,,42.34235666666666,-71.08425333333332,24.7,328311.85022119625,4689892.6816833755,19.0,T,0
1646353078.1989806,998,0,0,,42.34235666666666,-71.08425333333332,24.7,328311.85022119625,4689892.6816833755,19.0,T,0
1646353079.192609,999,0,0,,42.34235666666666,-71.08425333333332,24.7,328311.85022119625,4689892.6816833755,19.0,T,0
1646353080.1933846,1000,0,0,,42.34235666666666,-71.08425333333332,24.7,328311.85022119625,4689892.6816833755,19.0,T,0
1646353081.190612,1001,0,0,,42.34235666666666,-71.08425333333332,24.7,328311.85022119625,4689892.6816833755,19.0,T,0
1646353082.1917107,1002,0,0,,42.34235666666666,-71.08425333333332,24.7,328311.85022119625,4689892.6816833755,19.0,T,0
1646353083.1934495,1003,0,0,,42.342355,-71.08425333333332,24.8,328311.8456845586,4689892.49661265,19.0,T,0
1646353084.193769,1004,0,0,,42.342355,-71.08425333333332,24.8,328311.8456845586,4689892.49661265,19.0,T,0
1646353085.2096148,1005,0,0,,42.342355,-71.08425499999998,24.8,328311.70838895615,4689892.499978178,19.0,T,0
1646353086.1925957,1006,0,0,,42.342355,-71.08425499999998,24.8,328311.70838895615,4689892.499978178,19.0,T,0
1646353087.1913528,1007,0,0,,42.342355,-71.08425499999998,24.8,328311.70838895615,4689892.499978178,19.0,T,0
1646353088.1897504,1008,0,0,,42.342355,-71.08425499999998,24.9,328311.70838895615,4689892.499978178,19.0,T,0
1646353089.1892345,1009,0,0,,42.342355,-71.08425499999998,24.9,328311.70838895615,4689892.499978178,19.0,T,0
1646353090.2055135,1010,0,0,,42.342355,-71.08425499999998,24.9,328311.70838895615,4689892.499978178,19.0,T,0
1646353091.189894,1011,0,0,,42.342355,-71.08425499999998,24.9,328311.70838895615,4689892.499978178,19.0,T,0
1646353092.1889098,1012,0,0,,42.34235333333333,-71.08425499999998,25.0,328311.7038523151,4689892.314907454,19.0,T,0
1646353093.1938512,1013,0,0,,42.34235333333333,-71.08425666666668,25.0,328311.5665567027,4689892.318272985,19.0,T,0
1646353094.1906378,1014,0,0,,42.34235333333333,-71.08425666666668,25.0,328311.5665567027,4689892.318272985,19.0,T,0
1646353095.1992245,1015,0,0,,42.34235333333333,-71.08425666666668,25.0,328311.5665567027,4689892.318272985,19.0,T,0
1646353096.1915023,1016,0,0,,42.34235333333333,-71.08425666666668,25.1,328311.5665567027,4689892.318272985,19.0,T,0
1646353097.1930754,1017,0,0,,42.34235333333333,-71.08425666666668,25.1,328311.5665567027,4689892.318272985,19.0,T,0
1646353098.1920643,1018,0,0,,42.34235333333333,-71.08425666666668,25.1,328311.5665567027,4689892.318272985,19.0,T,0
1646353099.1921551,1019,0,0,,42.34235166666667,-71.08425666666668,25.1,328311.56202005816,4689892.13320226,19.0,T,0
1646353100.192754,1020,0,0,,42.34235,-71.08425666666668,25.3,328311.5574834137,4689891.948131537,19.0,T,0
1646353101.1918483,1021,0,0,,42.34234499999999,-71.08425333333332,25.5,328311.818464736,4689891.386188305,19.0,T,0
1646353102.192121,1022,0,0,,42.34233166666667,-71.08424166666667,25.6,328312.74324124074,4689889.882063899,19.0,T,0
1646353103.1923099,1023,0,0,,42.34231,-71.08421333333334,26.0,328315.01829227654,4689887.418931266,19.0,T,0
1646353104.1912847,1024,0,0,,42.342283333333334,-71.08416833333332,26.6,328318.6526930992,4689884.366933249,19.0,T,0
1646353105.1912153,1025,0,0,,42.34224833333333,-71.08411166666666,27.2,328323.2254862172,4689880.366026484,19.0,T,0
1646353106.1911607,1026,0,0,,42.34220833333334,-71.08404333333334,27.8,328328.74574745406,4689875.786354364,19.0,T,0
1646353107.1905072,1027,0,0,,42.34216333333333,-71.08396666666665,28.2,328334.9388879581,4689870.634649348,19.0,T,0
1646353108.1906955,1028,0,0,,42.34211333333333,-71.08388666666666,28.7,328341.3930223413,4689864.921008104,19.0,T,0
1646353109.1899695,1029,0,0,,42.342066666666675,-71.08380666666667,29.5,328347.8562385605,4689859.577514586,19.0,T,0
1646353110.1901913,1030,0,0,,42.34201833333333,-71.08373333333334,30.0,328353.76574382605,4689854.06241536,19.0,T,0
1646353111.1914158,1031,0,0,,42.34196833333334,-71.08366666666667,29.9,328359.1215373733,4689848.375709002,19.0,T,0
1646353112.1908062,1032,0,0,,42.341928333333335,-71.08361000000001,30.2,328363.6807716235,4689843.819618111,19.0,T,0
1646353113.189663,1033,0,0,,42.34190166666667,-71.083555,30.5,328368.1389958565,4689840.747460412,19.0,T,0
1646353114.1895597,1034,0,0,,42.34187166666667,-71.083515,30.6,328371.3524841689,4689837.335443112,19.0,T,0
1646353115.1890962,1035,0,0,,42.341845,-71.08348666666667,30.9,328373.61396848003,4689834.3171187015,19.0,T,0
1646353116.1895974,1036,0,0,,42.341825,-71.08346499999999,31.1,328375.3444072193,4689832.05253486,19.0,T,0
1646353117.1906493,1037,0,0,,42.34180666666666,-71.083455,31.3,328376.1183043801,4689829.996571727,19.0,T,0
1646353118.191501,1038,0,0,,42.34179,-71.08345333333334,31.1,328376.21025271737,4689828.142500501,19.0,T,0
1646353119.1901429,1039,0,0,,42.341788333333334,-71.08345166666668,31.0,328376.34301470505,4689827.954065574,19.0,T,0
1646353120.1900475,1040,0,0,,42.341788333333334,-71.08345333333334,31.0,328376.2057178725,4689827.9574298,19.0,T,0
1646353121.1903594,1041,0,0,,42.341788333333334,-71.08345333333334,31.0,328376.2057178725,4689827.9574298,19.0,T,0
1646353122.186172,1042,0,0,,42.341788333333334,-71.08345333333334,31.0,328376.2057178725,4689827.9574298,19.0,T,0
1646353123.190339,1043,0,0,,42.34178666666667,-71.08345333333334,31.0,328376.2011830276,4689827.772359103,19.0,T,0
1646353124.1880827,1044,0,0,,42.34178666666667,-71.08345333333334,31.0,328376.2011830276,4689827.772359103,19.0,T,0
1646353125.1905785,1045,0,0,,42.34178666666667,-71.08345333333334,31.0,328376.2011830276,4689827.772359103,19.0,T,0
1646353126.1889853,1046,0,0,,42.34178666666667,-71.08345333333334,31.0,328376.2011830276,4689827.772359103,19.0,T,0
1646353127.1880944,1047,0,0,,42.34178666666667,-71.08345333333334,31.0,328376.2011830276,4689827.772359103,19.0,T,0
1646353128.1879966,1048,0,0,,42.34178666666667,-71.08345333333334,31.0,328376.2011830276,4689827.772359103,19.0,T,0
1646353129.1892617,1049,0,0,,42.34178666666667,-71.08345333333334,31.0,328376.2011830276,4689827.772359103,19.0,T,0
1646353130.187352,1050,0,0,,42.34178666666667,-71.083455,31.0,328376.06388618925,4689827.775723332,19.0,T,0
1646353131.1854298,1051,0,0,,42.34178666666667,-71.083455,31.0,328376.06388618925,4689827.775723332,19.0,T,0
1646353132.187496,1052,0,0,,42.341784999999994,-71.083455,31.0,328376.059351341,4689827.59065263,19.0,T,0
1646353133.1876936,1053,0,0,,42.341784999999994,-71.083455,31.0,328376.059351341,4689827.59065263,19.0,T,0
1646353134.1857817,1054,0,0,,42.341773333333336,-71.08346333333333,30.6,328375.34112307813,4689826.311978918,19.0,T,0
1646353135.2054613,1055,0,0,,42.34176666666667,-71.08346833333334,30.3,328374.9110929739,4689825.58178886,19.0,T,0
1646353136.1885915,1056,0,0,,42.34176000000001,-71.08346666666665,30.0,328375.0302503711,4689824.838141816,19.0,T,0
1646353137.1883926,1057,0,0,,42.34175,-71.08346,29.9,328375.5522288099,4689823.714260652,19.0,T,0
1646353138.187389,1058,0,0,,42.34173166666667,-71.08344166666667,30.1,328377.01261192944,4689821.641476526,19.0,T,0
1646353139.1872633,1059,0,0,,42.34170999999999,-71.08341666666666,30.1,328379.0131144123,4689819.185094653,19.0,T,0
1646353140.1873276,1060,0,0,,42.34168666666666,-71.08338333333332,29.9,328381.6955689056,4689816.526822105,19.0,T,0
1646353141.2234063,1061,0,0,,42.341660000000005,-71.08334333333333,29.5,328384.9181446837,4689813.484953056,19.0,T,0
1646353142.1904674,1062,0,0,,42.34163000000001,-71.08329666666666,29.1,328388.6808429832,4689810.059488287,19.0,T,0
1646353143.1899512,1063,0,0,,42.341593333333336,-71.08324666666667,28.9,328392.7000019487,4689805.887015109,19.0,T,0
1646353144.1912324,1064,0,0,,42.34155500000001,-71.08318833333334,28.7,328397.4011182034,4689801.512654699,19.0,T,0
1646353145.188125,1065,0,0,,42.341511666666676,-71.08312166666666,28.2,328402.77512518154,4689796.566267106,19.0,T,0
1646353146.1876402,1066,0,0,,42.341465,-71.08305166666666,27.9,328408.41466696374,4689791.243015366,19.0,T,0
1646353147.194379,1067,0,0,,42.341415000000005,-71.08297999999999,27.8,328414.1824474478,4689785.546263631,19.0,T,0
1646353148.1864274,1068,0,0,,42.341366666666666,-71.08291166666666,27.5,328419.6801755333,4689780.0413143365,19.0,T,0
1646353149.1854208,1069,0,0,,42.341319999999996,-71.08284833333335,27.2,328424.77055227815,4689774.731530055,19.0,T,0
1646353150.1875517,1070,0,0,,42.34127833333334,-71.08279166666665,27.1,328429.3253451273,4689769.990414359,19.0,T,0
1646353151.1884742,1071,0,0,,42.34124833333333,-71.08274333333333,27.1,328433.2253868221,4689766.561611902,19.0,T,0
1646353152.1887832,1072,0,0,,42.341220000000014,-71.08270833333331,27.0,328436.0315809644,4689763.344786469,19.0,T,0
1646353153.1894395,1073,0,0,,42.34119833333333,-71.08268166666667,27.0,328438.1694195444,4689760.885059777,19.0,T,0
1646353154.1871889,1074,0,0,,42.34118000000001,-71.08266000000002,27.0,328439.90443130373,4689758.805563941,19.0,T,0
1646353155.1877477,1075,0,0,,42.34116666666667,-71.082645,27.0,328441.10385043453,4689757.294732222,19.0,T,0
1646353156.1886542,1076,0,0,,42.341155,-71.08263166666669,26.9,328442.1705048862,4689755.97233429,19.0,T,0
1646353157.189258,1077,0,0,,42.34114500000001,-71.08262166666665,26.9,328442.96709626715,4689754.841732955,19.0,T,0
1646353158.1893306,1078,0,0,,42.34113833333334,-71.082615,26.9,328443.4981573322,4689754.087998784,19.0,T,0
1646353159.1889887,1079,0,0,,42.34113166666666,-71.08261166666666,26.9,328443.7546220027,4689753.340990371,19.0,T,0
1646353160.1894703,1080,0,0,,42.34112833333334,-71.08261,26.8,328443.88285435946,4689752.967486171,19.0,T,0
1646353161.1873355,1081,0,0,,42.34112666666667,-71.08261,26.8,328443.8783214099,4689752.782415499,19.0,T,0
1646353162.1878834,1082,0,0,,42.34112666666667,-71.08260833333334,26.8,328444.01561967935,4689752.779052644,19.0,T,0
1646353163.1873045,1083,0,0,,42.34112666666667,-71.08260833333334,26.7,328444.01561967935,4689752.779052644,19.0,T,0
1646353164.1895702,1084,0,0,,42.34112666666667,-71.08260833333334,26.7,328444.01561967935,4689752.779052644,19.0,T,0
1646353165.1904466,1085,0,0,,42.34112666666667,-71.08260833333334,26.7,328444.01561967935,4689752.779052644,19.0,T,0
1646353166.1899352,1086,0,0,,42.34112499999999,-71.08261,26.9,328443.8737884604,4689752.597344827,19.0,T,0
1646353167.1897159,1087,0,0,,42.34112333333334,-71.08260666666668,27.0,328444.1438520604,4689752.40554845,19.0,T,0
1646353168.189455,1088,0,0,,42.341115,-71.08259666666665,27.1,328444.9449771169,4689751.460018034,19.0,T,0
1646353169.188282,1089,0,0,,42.341098333333335,-71.08257333333333,27.0,328446.82182454644,4689749.562231903,19.0,T,0
1646353170.1879773,1090,0,0,,42.341073333333334,-71.082535,26.9,328449.91169438546,4689746.708828242,19.0,T,0
1646353171.1908123,1091,0,0,,42.34104000000001,-71.08248833333333,26.7,328453.6653955589,4689742.91325936,19.0,T,0
1646353172.1893628,1092,0,0,,42.34100333333333,-71.08243333333333,26.7,328458.0965283824,4689738.730738414,19.0,T,0
1646353173.1878958,1093,0,0,,42.340959999999995,-71.08237333333334,25.7,328462.9214326979,4689733.797850365,19.0,T,0
1646353174.1897843,1094,0,0,,42.34092000000001,-71.08230999999999,25.0,328468.03000589646,4689729.228382457,19.0,T,0
1646353175.1879525,1095,0,0,,42.340880000000006,-71.08224666666666,24.4,328473.1385857827,4689724.658918495,19.0,T,0
1646353176.188485,1096,0,0,,42.34084166666666,-71.08218500000001,24.4,328478.1144054626,4689720.277891311,19.0,T,0
1646353177.1886811,1097,0,0,,42.340805,-71.08212166666667,24.4,328483.2320622107,4689716.078576462,19.0,T,0
1646353178.1878004,1098,0,0,,42.34076833333334,-71.08206333333334,24.5,328487.93782794627,4689711.889351453,19.0,T,0
1646353179.1878004,1099,0,0,,42.34073000000001,-71.08201,24.4,328492.227170349,4689707.525144775,19.0,T,0
1646353180.1898503,1100,0,0,,42.34069500000001,-71.08196166666667,24.1,328496.11368352675,4689703.541167612,19.0,T,0
1646353181.1883206,1101,0,0,,42.34066333333333,-71.08191833333332,23.8,328499.5973661465,4689699.937419245,19.0,T,0
1646353182.1881914,1102,0,0,,42.34063833333333,-71.08188333333332,23.5,328502.41268098494,4689697.090763683,19.0,T,0
1646353183.1891265,1103,0,0,,42.34062000000001,-71.08185333333333,23.2,328504.8342250245,4689694.994476801,19.0,T,0
1646353184.1893137,1104,0,0,,42.340605000000004,-71.08182333333333,22.9,328507.2648328906,4689693.2683321,19.0,T,0
1646353185.1896331,1105,0,0,,42.34059666666666,-71.08178833333332,22.6,328510.12546468707,4689692.272386288,19.0,T,0
1646353186.2091763,1106,0,0,,42.34059333333333,-71.08173833333333,22.3,328514.23538515903,4689691.801400529,19.0,T,0
1646353187.1902375,1107,0,0,,42.34060833333333,-71.08167499999999,21.5,328519.49354102404,4689693.339303508,19.0,T,0
1646353188.1911218,1108,0,0,,42.34063666666666,-71.08161000000001,20.8,328524.9252395695,4689696.354414303,19.0,T,0
1646353189.191307,1109,0,0,,42.34067333333334,-71.08155166666666,20.8,328529.8303892815,4689700.308326963,19.0,T,0
1646353190.2002947,1110,0,0,,42.34072,-71.08149499999999,21.0,328534.62541719223,4689705.37602785,19.0,T,0
1646353191.2010274,1111,0,0,,42.34077000000001,-71.08143333333334,21.5,328539.8413961249,4689710.803790289,19.0,T,0
1646353192.2014432,1112,0,0,,42.34082166666666,-71.08137,21.9,328545.19919625716,4689716.413266213,19.0,T,0
1646353193.219691,1113,0,0,,42.340875000000004,-71.081305,22.4,328550.6988168453,4689722.204455936,19.0,T,0
1646353194.1975234,1114,0,0,,42.34093,-71.08123833333333,22.7,328556.34025713435,4689728.177359769,19.0,T,0
1646353195.2009523,1115,0,0,,42.340985,-71.08117166666665,23.0,328561.9816879738,4689734.150267915,19.0,T,0
1646353196.2014391,1116,0,0,,42.34104000000001,-71.08110333333335,23.3,328567.76040780323,4689740.119819953,19.0,T,0
1646353197.1993713,1117,0,0,,42.341100000000004,-71.08103333333334,23.8,328573.6900048072,4689746.64122817,19.0,T,0
1646353198.2001944,1118,0,0,,42.34115666666666,-71.08096166666665,24.0,328579.7478304544,4689752.789139644,19.0,T,0
1646353199.1968596,1119,0,0,,42.34121333333333,-71.08089000000001,24.2,328585.8056456228,4689758.937056098,19.0,T,0
1646353200.1991541,1120,0,0,,42.34127,-71.08081833333333,24.5,328591.86345032277,4689765.084977534,19.0,T,0
1646353201.1946912,1121,0,0,,42.34132833333333,-71.080745,24.8,328598.063071266,4689771.414614762,19.0,T,0
1646353202.2002194,1122,0,0,,42.34138500000001,-71.08067333333334,25.1,328604.1208547373,4689777.562546278,19.0,T,0
1646353203.198836,1123,0,0,,42.34144333333334,-71.08060166666667,25.3,328610.18315633526,4689783.895553433,19.0,T,0
1646353204.2000709,1124,0,0,,42.341501666666666,-71.08052833333333,25.6,328616.3827445917,4689790.225206073,19.0,T,0
1646353205.193957,1125,0,0,,42.34156333333333,-71.08045666666668,25.7,328622.45408109995,4689796.928364631,19.0,T,0
1646353206.194471,1126,0,0,,42.34163000000001,-71.08038666666667,25.6,328628.40169351397,4689804.190099424,19.0,T,0
1646353207.1997576,1127,0,0,,42.34169,-71.08031666666668,25.7,328634.331181924,4689810.711556334,19.0,T,0
1646353208.1985836,1128,0,0,,42.341746666666666,-71.08024999999999,25.8,328639.977010014,4689816.869594767,19.0,T,0
1646353209.1975474,1129,0,0,,42.34179833333333,-71.08018,25.9,328645.8838387754,4689822.465707646,19.0,T,0
1646353210.2008758,1130,0,0,,42.34184666666667,-71.08010833333333,26.0,328651.91889975,4689827.688325124,19.0,T,0
1646353211.1990232,1131,0,0,,42.34189666666666,-71.08004,26.1,328657.68388603174,4689833.102735657,19.0,T,0
1646353212.193935,1132,0,0,,42.34194833333333,-71.07997333333333,26.1,328663.31609430816,4689838.705579983,19.0,T,0
1646353213.1927416,1133,0,0,,42.34200333333333,-71.07990333333335,26.2,328669.23194063734,4689844.671852967,19.0,T,0
1646353214.1986606,1134,0,0,,42.342065,-71.07983333333333,26.4,328675.16588496533,4689851.37841337,19.0,T,0
1646353215.19911,1135,0,0,,42.342143333333325,-71.07976166666668,25.5,328681.28238256346,4689859.932326952,19.0,T,0
1646353216.201093,1136,0,0,,42.34220666666666,-71.07968666666667,25.4,328687.63271742,4689866.813893224,19.0,T,0
1646353217.195956,1137,0,0,,42.34226833333334,-71.07960999999999,25.2,328694.11580928083,4689873.507036263,19.0,T,0
1646353218.1923254,1138,0,0,,42.34232833333334,-71.07953499999999,25.2,328700.4570669759,4689880.018472232,19.0,T,0
1646353219.193397,1139,0,0,,42.34238499999999,-71.07946166666667,25.6,328706.65196516924,4689886.1631300915,19.0,T,0
1646353220.1988137,1140,0,0,,42.34244333333332,-71.07939166666667,26.0,328712.57678794034,4689892.49957917,19.0,T,0
1646353221.196312,1141,0,0,,42.3425,-71.07932333333333,26.2,328718.35977903625,4689898.654319893,19.0,T,0
1646353222.1968567,1142,0,0,,42.34255499999999,-71.07925499999999,26.3,328724.1382343887,4689904.623994469,19.0,T,0
1646353223.1992214,1143,0,0,,42.34260999999999,-71.07918833333332,26.3,328729.77938504086,4689910.597030916,19.0,T,0
1646353224.1914582,1144,0,0,,42.34266833333332,-71.07912166666667,26.0,328735.42957721057,4689916.94021303,19.0,T,0
1646353225.1962154,1145,0,0,,42.34272666666668,-71.07905833333332,25.8,328740.8051698646,4689923.290113724,19.0,T,0
1646353226.1880572,1146,0,0,,42.342776666666666,-71.078995,25.4,328746.15812692884,4689928.714664921,19.0,T,0
1646353227.191794,1147,0,0,,42.342823333333335,-71.07893666666668,25.1,328751.0901420297,4689933.779149454,19.0,T,0
1646353228.191446,1148,0,0,,42.34286833333334,-71.07888166666667,24.6,328755.74303625716,4689938.665280303,19.0,T,0
1646353229.1910315,1149,0,0,,42.34290666666667,-71.07883333333332,24.2,328759.82864721876,4689942.82455843,19.0,T,0
1646353230.1920977,1150,0,0,,42.34294499999999,-71.07879666666665,23.5,328762.9531934773,4689947.007335746,19.0,T,0
1646353231.1946988,1151,0,0,,42.34297166666667,-71.07876499999999,22.4,328765.63418041664,4689949.90468958,19.0,T,0
1646353232.1932402,1152,0,0,,42.34299333333333,-71.07874166666667,21.7,328767.6151203342,4689952.263615433,19.0,T,0
1646353233.1934264,1153,0,0,,42.34300833333333,-71.07872333333334,21.4,328769.16607800196,4689953.892328858,19.0,T,0
1646353234.193098,1154,0,0,,42.343025000000004,-71.07870666666666,21.3,328770.58426547085,4689955.709469861,19.0,T,0
1646353235.187854,1155,0,0,,42.34304666666667,-71.07868666666667,21.2,328772.2906140593,4689958.075110102,19.0,T,0
1646353236.2088926,1156,0,0,,42.34307666666667,-71.07865833333334,21.1,328774.70605411276,4689961.349321661,19.0,T,0
1646353237.1976855,1157,0,0,,42.343105,-71.07862166666666,20.7,328777.80343716196,4689964.421681125,19.0,T,0
1646353238.1972318,1158,0,0,,42.34313666666667,-71.07858166666668,20.0,328781.18445395125,4689967.857470522,19.0,T,0
1646353239.1976995,1159,0,0,,42.343175,-71.07854833333333,19.3,328784.03438944544,4689972.04696944,19.0,T,0
1646353240.197757,1160,0,0,,42.343216666666656,-71.07853999999999,18.7,328784.8339648718,4689976.656955025,19.0,T,0
1646353241.1980019,1161,0,0,,42.34326166666666,-71.07855500000001,18.7,328783.7204778164,4689981.684070375,19.0,T,0
1646353242.197535,1162,0,0,,42.34329999999999,-71.07858833333333,18.6,328781.07866678294,4689986.007823247,19.0,T,0
1646353243.2105188,1163,0,0,,42.34333499999999,-71.07863166666667,18.4,328777.60404971056,4689989.981574516,19.0,T,0
1646353244.1967914,1164,0,0,,42.34336833333333,-71.07867999999999,18.3,328773.71303203376,4689993.780326531,19.0,T,0
1646353245.191698,1165,0,0,,42.34340333333333,-71.07873333333333,18.1,328769.4146634754,4689997.7742213765,19.0,T,0
1646353246.1908405,1166,0,0,,42.343441666666656,-71.07879,17.9,328764.8507631066,4690002.144973825,19.0,T,0
1646353247.1902735,1167,0,0,,42.34348333333334,-71.07884999999999,17.4,328760.02133218665,4690006.892584439,19.0,T,0
1646353248.1894062,1168,0,0,,42.343529999999994,-71.07891166666667,16.8,328755.0681901672,4690012.198767606,19.0,T,0
1646353249.1898756,1169,0,0,,42.34357833333333,-71.07897833333334,16.5,328749.7077023181,4690017.700096265,19.0,T,0
1646353250.1954663,1170,0,0,,42.34362833333333,-71.07905000000001,16.3,328743.9398700263,4690023.396571394,19.0,T,0
1646353251.1943352,1171,0,0,,42.343675,-71.07912833333333,15.7,328737.6138253218,4690028.736339193,19.0,T,0
1646353252.1934202,1172,0,0,,42.343725,-71.07920833333333,15.2,328731.1595492016,4690034.449611828,19.0,T,0
1646353253.1850865,1173,0,0,,42.34377166666667,-71.07929,14.8,328724.55893927097,4690039.796106864,19.0,T,0
1646353254.1881628,1174,0,0,,42.34381833333333,-71.07937000000001,14.5,328718.0956317648,4690045.139250802,19.0,T,0
1646353255.1898232,1175,0,0,,42.343865,-71.07944833333333,14.2,328711.76962638006,4690050.479043257,19.0,T,0
1646353256.1887586,1176,0,0,,42.34391333333333,-71.07952666666665,14.1,328705.44815711444,4690056.003912465,19.0,T,0
1646353257.1885402,1177,0,0,,42.343959999999996,-71.07960333333334,13.8,328699.259463258,4690061.340358964,19.0,T,0
1646353258.1880293,1178,0,0,,42.344006666666665,-71.07967666666666,13.9,328693.3453627803,4690066.670094951,19.0,T,0
1646353259.1914694,1179,0,0,,42.34405666666667,-71.07974666666667,14.1,328687.7149090066,4690072.36326115,19.0,T,0
1646353260.1916327,1180,0,0,,42.34410500000001,-71.079815,13.9,328682.21722912684,4690077.868003097,19.0,T,0
1646353261.192484,1181,0,0,,42.34414666666667,-71.079885,14.0,328676.5641572233,4690082.635825228,19.0,T,0
1646353262.190319,1182,0,0,,42.344188333333335,-71.07995833333332,14.3,328670.63650986133,4690087.410369384,19.0,T,0
1646353263.194425,1183,0,0,,42.34423,-71.08003166666668,14.0,328664.7088705512,4690092.1849188255,19.0,T,0
1646353264.1903825,1184,0,0,,42.34427666666667,-71.08010333333334,13.9,328658.932113983,4690097.51132691,19.0,T,0
1646353265.1900506,1185,0,0,,42.34432166666667,-71.08017833333334,14.2,328652.87625575083,4690102.659387237,19.0,T,0
1646353266.1900446,1186,0,0,,42.34436833333333,-71.08024833333334,14.0,328647.2368080749,4690107.982446599,19.0,T,0
1646353267.1913452,1187,0,0,,42.34441333333332,-71.08031833333334,13.9,328641.59284079063,4690113.120440053,19.0,T,0
1646353268.1901941,1188,0,0,,42.34445999999999,-71.08039000000001,14.2,328635.81611923466,4690118.4468683805,19.0,T,0
1646353269.189502,1189,0,0,,42.344505,-71.08045833333334,14.0,328630.30945973017,4690123.581512192,19.0,T,0
1646353270.1872287,1190,0,0,,42.34455,-71.08052666666667,13.8,328624.80280834704,4690128.716160606,19.0,T,0
1646353271.191296,1191,0,0,,42.34459499999999,-71.08059499999999,13.7,328619.2961650874,4690133.850813621,19.0,T,0
1646353272.190725,1192,0,0,,42.34464,-71.08066166666669,13.6,328613.92682054767,4690138.982111492,19.0,T,0
1646353273.1930246,1193,0,0,,42.344681666666666,-71.08072000000001,13.5,328609.2348781518,4690143.726473009,19.0,T,0
1646353274.1900144,1194,0,0,,42.344713333333324,-71.08076666666665,13.2,328605.47679961985,4690147.33689389,19.0,T,0
1646353275.1904786,1195,0,0,,42.34473833333333,-71.08080166666666,12.9,328602.66164027504,4690150.183514027,19.0,T,0
1646353276.190019,1196,0,0,,42.34475333333333,-71.08082333333334,12.6,328600.9176296376,4690151.892830693,19.0,T,0
1646353277.1896963,1197,0,0,,42.34476333333334,-71.08084000000001,12.3,328599.57190258463,4690153.036855441,19.0,T,0
