Time,header.seq,header.stamp.secs,header.stamp.nsecs,header.frame_id,orientation.x,orientation.y,orientation.z,orientation.w,angular_velocity.x,angular_velocity.y,angular_velocity.z,linear_acceleration.x,linear_acceleration.y,linear_acceleration.z,magnetic_field.x,magnetic_field.y,magnetic_field.z
1646352655.0962648,18030,1646352655,90771913,,0.01283147276347383,-0.006777543720135259,-0.9990392312580344,0.041352540613576426,0.00556,0.005216,-0.039763,0.449,0.025,-9.69,-3.3339999999999996e-05,3.61e-06,1.657e-05
1646352655.1208014,18031,1646352655,115752935,,0.012829466624470064,-0.0068095210319165265,-0.9990577156528357,0.04089885088832147,0.004525,-0.003739,-0.040945,0.667,-0.145,-9.921,-3.3600000000000004e-05,3.7900000000000006e-06,1.6950000000000002e-05
1646352655.1457853,18032,1646352655,140879154,,0.012827732601492427,-0.006840938199656481,-0.9990742276269682,0.04048874575027082,0.00307,-0.002155,-0.039635,0.662,-0.262,-9.867,-3.3260000000000003e-05,3.34e-06,1.697e-05
1646352655.170558,18033,1646352655,165789604,,0.01281765516249413,-0.006890703150757831,-0.9990923049840182,0.04003488538693515,0.005871,0.000632,-0.039582,0.677,-0.256,-9.989,-3.368e-05,3.6200000000000005e-06,1.734e-05
1646352655.1952617,18034,1646352655,190775394,,0.01278993362198235,-0.006932100699912701,-0.9991094111825375,0.03960742435850665,0.003327,0.000274,-0.040906,0.734,-0.297,-9.65,-3.3860000000000004e-05,3.2599999999999997e-06,1.704e-05
1646352655.2215934,18035,1646352655,215986251,,0.01277095882540173,-0.0069730208208240805,-0.9991258842822663,0.039188607381373454,0.001926,-0.000858,-0.041288,0.466,-0.188,-9.246,-3.403e-05,3.6200000000000005e-06,1.712e-05
1646352655.245125,18036,1646352655,240878105,,0.0127432328874667,-0.007014266221809049,-0.999142286401947,0.03876985437727221,0.002694,-0.003267,-0.042183,0.481,-0.158,-9.103,-3.5060000000000007e-05,4.09e-06,1.7160000000000002e-05
1646352655.2701752,18037,1646352655,265792369,,0.012724158665222427,-0.0070645388560884766,-0.999160350172959,0.0382985994425822,0.002442,-0.005758,-0.044625,0.351,-0.27,-8.965,-3.489e-05,3.82e-06,1.687e-05
1646352655.2952816,18038,1646352655,290762186,,0.012714687288289213,-0.007140732688019727,-0.9991782269879627,0.03781821488424331,0.005835,-0.005051,-0.04657,0.409,-0.275,-9.252,-3.454e-05,4.17e-06,1.679e-05
1646352655.3211112,18039,1646352655,316100597,,0.012714779506351434,-0.007242861357358505,-0.9991958984804596,0.037328699432074355,0.008241,-0.004606,-0.049311,0.467,-0.403,-9.383,-3.532e-05,4.01e-06,1.7140000000000002e-05
1646352655.34622,18040,1646352655,340831279,,0.012714197910471245,-0.007345990325900048,-0.9992162112049874,0.03676069725638076,0.009182,-0.001676,-0.055528,0.543,-0.418,-9.844,-3.549e-05,4.1900000000000005e-06,1.743e-05
1646352655.3705933,18041,1646352655,365906000,,0.012722028195685254,-0.0074491363750704915,-0.9992370330390821,0.03616645087793738,0.008016,0.0,-0.053918,0.596,-0.433,-9.858,-3.481e-05,3.4500000000000004e-06,1.659e-05
1646352655.3951197,18042,1646352655,390776872,,0.012702808767279883,-0.007545286485158449,-0.9992600472336375,0.03551148129699961,0.007896,-0.001531,-0.058997,0.585,-0.45,-9.902,-3.507e-05,3.6400000000000003e-06,1.7160000000000002e-05
1646352655.4205427,18043,1646352655,415875911,,0.012691685183948405,-0.007632720522713529,-0.9992834971463791,0.03483037518483238,0.007873,-0.002047,-0.061968,0.625,-0.369,-9.714,-3.558e-05,4.01e-06,1.772e-05
1646352655.4457614,18044,1646352655,440969228,,0.01268830403573814,-0.007702844794936004,-0.9993076967150406,0.03411451903284204,0.004057,-0.002586,-0.065172,0.477,-0.457,-9.499,-3.567e-05,4.2000000000000004e-06,1.762e-05
1646352655.472161,18045,1646352655,465864181,,0.012675681247853475,-0.007764761730247149,-0.9993321361686174,0.03338139003760924,0.00348,0.000308,-0.066684,0.525,-0.372,-9.522,-3.49e-05,3.55e-06,1.7080000000000002e-05
1646352655.496217,18046,1646352655,491271257,,0.012680348117377675,-0.007826201532394028,-0.9993561080517529,0.03263937255600176,0.002976,-0.002082,-0.067194,0.366,-0.391,-9.119,-3.558e-05,4.1000000000000006e-06,1.743e-05
1646352655.5205805,18047,1646352655,515885829,,0.012684236685649991,-0.007870431386940628,-0.9993802202697643,0.03188011579407079,0.001097,-0.003022,-0.069473,0.378,-0.37,-9.183,-3.61e-05,3.84e-06,1.74e-05
1646352655.5463233,18048,1646352655,540944576,,0.012679471792531842,-0.007933051795209393,-0.9994053503417619,0.03106836642852317,0.004815,-0.001596,-0.072614,0.351,-0.429,-9.066,-3.523e-05,4.4600000000000005e-06,1.7440000000000002e-05
1646352655.5708082,18049,1646352655,566001653,,0.012674683350389309,-0.007995558989825964,-0.9994295542522433,0.030265318857891216,0.004375,-0.002717,-0.073176,0.454,-0.432,-9.461,-3.5060000000000007e-05,3.910000000000001e-06,1.7160000000000002e-05
1646352655.5968611,18050,1646352655,590830326,,0.012677729613368875,-0.008040803413199384,-0.9994541722074939,0.029427509397737715,0.00246,-0.001555,-0.075228,0.458,-0.461,-9.538,-3.516e-05,3.2800000000000004e-06,1.677e-05
1646352655.6203387,18051,1646352655,615776538,,0.012680459443091903,-0.008077336418059158,-0.9994781570878005,0.028589789944584613,0.002714,0.002024,-0.077109,0.455,-0.381,-9.628,-3.473e-05,3.36e-06,1.659e-05
1646352655.644711,18052,1646352655,640711784,,0.01268236994538191,-0.00809687772114662,-0.9995025486528893,0.027717382634652187,0.001763,-8.5e-05,-0.080337,0.57,-0.416,-9.765,-3.447e-05,3.36e-06,1.631e-05
1646352655.6700823,18053,1646352655,665852069,,0.01267515774620664,-0.008108163316775552,-0.9995268244307085,0.02682769664359795,8.4e-05,-0.002255,-0.082105,0.514,-0.449,-9.565,-3.463e-05,3.910000000000001e-06,1.758e-05
1646352655.6961691,18054,1646352655,691082239,,0.012676813598430965,-0.008128047648052807,-0.9995503569470723,0.025929079532481927,0.002457,-0.002862,-0.084138,0.54,-0.37,-9.643,-3.447e-05,2.9e-06,1.6610000000000002e-05
1646352655.7215984,18055,1646352655,715913295,,0.012677941382509507,-0.008139661124424234,-0.9995740256086633,0.024995660574840133,0.000354,-0.0026,-0.08634,0.507,-0.449,-9.397,-3.403e-05,3.2599999999999997e-06,1.713e-05
1646352655.7457943,18056,1646352655,741022825,,0.012670398953763977,-0.008169494731194235,-0.9995978361040675,0.024018459614536126,0.000504,-0.000925,-0.088642,0.555,-0.327,-9.455,-3.3520000000000004e-05,2.9800000000000003e-06,1.637e-05
1646352655.770789,18057,1646352655,765829324,,0.012679698450309262,-0.008190745438487535,-0.9996215525886644,0.022997576754932157,0.001263,-0.002815,-0.092796,0.404,-0.397,-9.143,-3.369e-05,3.0700000000000003e-06,1.626e-05
1646352655.7944295,18058,1646352655,790858983,,0.012663060756962613,-0.008221217578162283,-0.9996442845864325,0.021985512672614883,0.000785,-0.003238,-0.093645,0.559,-0.308,-9.409,-3.344e-05,2.7e-06,1.618e-05
1646352655.822259,18059,1646352655,816132307,,0.01268032824390623,-0.008234362697733939,-0.9996671676525526,0.020903551471275032,-0.000948,-0.000103,-0.0963,0.441,-0.337,-9.126,-3.3350000000000004e-05,2.52e-06,1.688e-05
1646352655.8458314,18060,1646352655,840883970,,0.0126885702680932,-0.008248172563112003,-0.9996896780873559,0.019786747067664326,-0.001339,-0.001052,-0.097373,0.532,-0.279,-9.335,-3.3260000000000003e-05,3.06e-06,1.648e-05
1646352655.8708978,18061,1646352655,865915298,,0.012705502441479161,-0.008252900452667699,-0.9997105785537108,0.018687401361150806,-0.002258,-0.003019,-0.097613,0.504,-0.347,-9.146,-3.309e-05,2.88e-06,1.679e-05
1646352655.8957825,18062,1646352655,890881538,,0.012696357050956234,-0.00827592257745389,-0.9997309100134463,0.01756186740677946,0.000913,-0.003609,-0.099642,0.577,-0.277,-9.304,-3.318e-05,2.43e-06,1.679e-05
1646352655.920344,18063,1646352655,915834188,,0.012704262683444106,-0.008299198299231684,-0.9997504737433446,0.0163925369366097,0.001457,-0.004088,-0.09849,0.518,-0.3,-9.167,-3.3350000000000004e-05,2.7e-06,1.718e-05
1646352655.9431171,18064,1646352655,940883636,,0.012703697117688663,-0.00832219508822033,-0.9997682460125307,0.015258158915269777,-0.000507,-0.003148,-0.100486,0.62,-0.408,-9.388,-3.3350000000000004e-05,2.7e-06,1.658e-05
1646352655.972717,18065,1646352655,965787649,,0.012703117953194941,-0.008336254782933492,-0.9997845571248398,0.014141321902456478,-0.001925,-0.002645,-0.09879,0.67,-0.288,-9.319,-3.3260000000000003e-05,2.7e-06,1.6780000000000002e-05
1646352655.9961474,18066,1646352655,990971326,,0.012702385410585134,-0.00836832761506352,-0.9998000419927614,0.012980621290226825,-0.000605,-0.003745,-0.101795,0.665,-0.29,-9.312,-3.336e-05,2.25e-06,1.669e-05
1646352656.0209117,18067,1646352656,15834093,,0.012710350276076646,-0.008409140859440589,-0.9998140996321662,0.011810991600466992,-5.7e-05,-0.0024,-0.101445,0.624,-0.371,-9.367,-3.3260000000000003e-05,2.6100000000000004e-06,1.6289999999999998e-05
1646352656.0455804,18068,1646352656,41037321,,0.01270069391904198,-0.008441448492308467,-0.9998270802899335,0.010641608911868196,-0.00192,-0.002653,-0.102544,0.734,-0.404,-9.37,-3.3520000000000004e-05,2.9800000000000003e-06,1.677e-05
1646352656.0715475,18069,1646352656,66452980,,0.012690510231718768,-0.008447901534917781,-0.9998391620811996,0.009446368533973107,-0.001723,-0.000463,-0.103723,0.727,-0.287,-9.521,-3.351e-05,3.34e-06,1.666e-05
1646352656.096784,18070,1646352656,91259956,,0.012671675951650264,-0.008463141529340683,-0.9998498505030095,0.008251079513632588,-0.000878,-0.0029,-0.105728,0.747,-0.361,-9.558,-3.3520000000000004e-05,2.71e-06,1.657e-05
1646352656.1219757,18071,1646352656,116116285,,0.01265261398329444,-0.00846984397726541,-0.9998593068490459,0.007038438018193505,0.001092,-0.003253,-0.109237,0.766,-0.308,-9.715,-3.3700000000000006e-05,2.53e-06,1.706e-05
1646352656.145916,18072,1646352656,140942335,,0.012633207979987297,-0.008468228141562294,-0.9998675690102223,0.005790993858148192,-1.1e-05,-0.000943,-0.109234,0.644,-0.377,-9.631,-3.309e-05,2.52e-06,1.66e-05
1646352656.1711118,18073,1646352656,166004180,,0.01260495736099575,-0.008484399701355155,-0.9998743544832454,0.004517217987691124,0.003284,-0.002286,-0.11332,0.71,-0.368,-9.657,-3.3350000000000004e-05,2.6100000000000004e-06,1.6780000000000002e-05
1646352656.1973855,18074,1646352656,191316127,,0.012602594096313355,-0.008509587998562886,-0.9998792272096165,0.0032081971320810023,0.000684,-0.00245,-0.114174,0.77,-0.435,-9.558,-3.3350000000000004e-05,2.34e-06,1.639e-05
1646352656.2203197,18075,1646352656,215973377,,0.012591221061250518,-0.008526407100792166,-0.9998826194781095,0.0018731790443755685,0.004119,-0.005201,-0.116727,0.716,-0.358,-9.476,-3.353e-05,2.25e-06,1.658e-05
1646352656.246085,18076,1646352656,241207122,,0.012579895360020929,-0.008534375586754149,-0.9998842990389919,0.0005469930336259668,0.002388,-0.005136,-0.119341,0.669,-0.382,-9.342,-3.3700000000000006e-05,2.4400000000000004e-06,1.607e-05
1646352656.27158,18077,1646352656,266160726,,-0.012577296308788755,0.008542333969763904,0.9998841097289524,0.0007792685355471633,4.4e-05,-0.005131,-0.117689,0.754,-0.344,-9.475,-3.378e-05,2.53e-06,1.696e-05
1646352656.295944,18078,1646352656,290885925,,-0.012574958394381452,0.008532520043826944,0.9998823649472706,0.002079132158938799,-0.002345,-0.002233,-0.119012,0.682,-0.295,-9.282,-3.3610000000000005e-05,2.6200000000000003e-06,1.696e-05
1646352656.32107,18079,1646352656,316079139,,-0.012554963209940075,0.008531713561582215,0.9998789866001242,0.003405131129501277,-0.000749,-0.003739,-0.120149,0.796,-0.273,-9.248,-3.3610000000000005e-05,2.4400000000000004e-06,1.687e-05
1646352656.3460429,18080,1646352656,340925455,,-0.012552592295466354,0.008530728840806516,0.999873711518055,0.004713820872412105,-0.00331,-0.003997,-0.119164,0.723,-0.245,-9.395,-3.379e-05,2.53e-06,1.636e-05
1646352656.3712997,18081,1646352656,366262435,,-0.012524143401683462,0.008529491176220382,0.9998671065392868,0.006013557439950386,-0.002126,-0.002289,-0.118792,0.774,-0.221,-9.434,-3.378e-05,2.89e-06,1.6950000000000002e-05
1646352656.3961408,18082,1646352656,391225099,,-0.01247784216610596,0.00854595642036696,0.9998586265923106,0.0073482591596333085,-0.000405,-0.0054,-0.117103,0.714,-0.287,-9.504,-3.369e-05,2.9800000000000003e-06,1.725e-05
1646352656.4206548,18083,1646352656,415800571,,-0.012431744395226199,0.008553370922502556,0.9998485898357717,0.008665389810760038,0.000878,-0.009985,-0.117075,0.718,-0.268,-9.712,-3.387e-05,2.53e-06,1.6950000000000002e-05
1646352656.4459321,18084,1646352656,440867900,,-0.012385972120920824,0.008543012152060471,0.9998371400317584,0.009964840746510707,-0.002192,-0.007388,-0.11756,0.698,-0.389,-9.68,-3.362e-05,2.07e-06,1.687e-05
1646352656.4713714,18085,1646352656,465995788,,-0.012340346122167412,0.008523823705085384,0.9998240738980232,0.011264170674759162,-0.001727,-0.006258,-0.115716,0.586,-0.45,-9.526,-3.379e-05,2.26e-06,1.7160000000000002e-05
1646352656.4963307,18086,1646352656,491218328,,-0.012277815295219248,0.008460797612663846,0.9998097952789117,0.012571532113257679,-0.001335,-0.009191,-0.118612,0.61,-0.321,-9.542,-3.3700000000000006e-05,2.35e-06,1.686e-05
1646352656.5207434,18087,1646352656,515896320,,-0.012223685016250433,0.008424129602191341,0.9997932269415781,0.013896723600009155,-0.001547,-0.006901,-0.117122,0.661,-0.372,-9.615,-3.396e-05,2.4400000000000004e-06,1.6850000000000003e-05
1646352656.5461292,18088,1646352656,541031360,,-0.012178650878306994,0.00836150246189691,0.999774742441811,0.015239098227070804,-0.003063,-0.0077,-0.118645,0.586,-0.368,-9.521,-3.405e-05,2.08e-06,1.705e-05
1646352656.5710776,18089,1646352656,565815925,,-0.012151545820601498,0.00829863127380336,0.9997548097363044,0.016546693394061045,-0.004316,-0.002486,-0.119306,0.589,-0.372,-9.488,-3.378e-05,2.71e-06,1.705e-05
1646352656.5955074,18090,1646352656,590900659,,-0.012115698638208746,0.008227353744113555,0.9997325604230343,0.017897712895265032,-0.002499,-0.004886,-0.120295,0.515,-0.258,-9.359,-3.396e-05,2.17e-06,1.6950000000000002e-05
1646352656.6209214,18091,1646352656,615795135,,-0.012097464042799311,0.008173352949118043,0.999708789539572,0.019214155787492197,-0.003897,-0.003751,-0.117087,0.547,-0.246,-9.435,-3.396e-05,1.99e-06,1.705e-05
1646352656.6458387,18092,1646352656,640805482,,-0.012070178677162539,0.00810295723063296,0.9996813745247466,0.020634977565609412,-0.004183,-0.00551,-0.118668,0.563,-0.209,-9.552,-3.405e-05,2.26e-06,1.665e-05
1646352656.6717744,18093,1646352656,665927171,,-0.012059881527510492,0.00804234245204746,0.9996502965781793,0.022117064375378154,-0.002535,-0.003245,-0.118627,0.632,-0.18,-9.732,-3.405e-05,2.08e-06,1.705e-05
1646352656.6965432,18094,1646352656,691161394,,-0.012049654499875793,0.007990333228783219,0.9996171513970318,0.023590486095256373,-0.000705,-0.003385,-0.117078,0.551,-0.147,-9.687,-3.422e-05,2.08e-06,1.664e-05
1646352656.7206104,18095,1646352656,715926885,,-0.01204796206346038,0.00795586939115654,0.9995818011644463,0.02505540926006904,-0.000781,-0.000161,-0.1153,0.571,-0.123,-9.704,-3.379e-05,1.8e-06,1.6669999999999998e-05
1646352656.7456446,18096,1646352656,740808963,,-0.012020666951820892,0.007911691068260802,0.9995453899000345,0.026493815128477743,0.000513,-0.001881,-0.114216,0.562,-0.084,-9.675,-3.353e-05,2.43e-06,1.677e-05
1646352656.7711468,18097,1646352656,766334772,,-0.012002939422443697,0.007849933935668641,0.9995076643858992,0.02790585630779346,-0.002723,-4.8e-05,-0.112132,0.548,-0.085,-9.797,-3.362e-05,2.07e-06,1.668e-05
1646352656.7957392,18098,1646352656,790916204,,-0.011959516131088359,0.00778696233059863,0.9994692854076003,0.029282771699298455,-0.003823,-0.004593,-0.110767,0.422,-0.065,-9.438,-3.379e-05,2.17e-06,1.637e-05
1646352656.8214297,18099,1646352656,815969944,,-0.011916758779247328,0.007714852288747463,0.9994298717377768,0.030633370571501013,-0.004858,-0.003877,-0.106497,0.472,-0.021,-9.602,-3.379e-05,1.8e-06,1.687e-05
1646352656.845413,18100,1646352656,840761423,,-0.01185655154888717,0.007659010976558501,0.9993901002187661,0.03194040264233159,-0.001779,-0.003939,-0.102952,0.442,-0.076,-9.52,-3.362e-05,1.53e-06,1.639e-05
1646352656.8709147,18101,1646352656,865869283,,-0.011787698987917605,0.007611148974779531,0.99934952230703,0.03322127072471505,-0.002059,-0.005632,-0.099955,0.446,-0.059,-9.455,-3.371e-05,1.8e-06,1.588e-05
1646352656.8956358,18102,1646352656,890935659,,-0.011717748761811567,0.007606316858823642,0.9993081678614713,0.03446772335312849,0.000754,-0.008891,-0.098115,0.251,-0.131,-9.154,-3.354e-05,1.7100000000000001e-06,1.609e-05
1646352656.921559,18103,1646352656,915769100,,-0.0116393740152186,0.007600605527129074,0.999266606773052,0.03567918659983167,0.00143,-0.006416,-0.096847,0.365,-0.135,-9.405,-3.371e-05,1.62e-06,1.5790000000000003e-05
1646352656.94611,18104,1646352656,941133260,,-0.011569816594097736,0.007594934696642158,0.9992237881251398,0.03688194078107082,0.001262,-0.005626,-0.095088,0.465,-0.167,-9.474,-3.354e-05,1.62e-06,1.639e-05
1646352656.9715059,18105,1646352656,965918302,,-0.011492433108908177,0.007571036601369331,0.9991807517464995,0.03805822808957505,0.000615,-0.005835,-0.09489,0.517,-0.24,-9.764,-3.328e-05,1.61e-06,1.561e-05
1646352656.9966257,18106,1646352656,991260528,,-0.011407087584192977,0.007529187504672683,0.9991365603505123,0.03923421286725595,-0.002797,-0.009326,-0.09376,0.517,-0.235,-9.457,-3.328e-05,1.61e-06,1.611e-05
1646352657.0208094,18107,1646352657,15750169,,-0.011357919820847611,0.007462198256565188,0.9990914608968624,0.04039264806244123,-0.004415,-0.004433,-0.092046,0.355,-0.216,-9.294,-3.337e-05,1.34e-06,1.611e-05
1646352657.0463285,18108,1646352657,41311502,,-0.011300695981506962,0.00738582823671523,0.9990459031642018,0.04153344655112681,-0.007929,-0.005673,-0.089517,0.275,-0.133,-9.102,-3.345000000000001e-05,1.7100000000000001e-06,1.59e-05
1646352657.0715086,18109,1646352657,66480398,,-0.011261660971004436,0.007301066385013544,0.9990000061748143,0.0426480607359456,-0.00504,-0.00587,-0.087766,0.201,-0.166,-9.055,-3.319e-05,1.8800000000000002e-06,1.631e-05
1646352657.0974424,18110,1646352657,91091871,,-0.01120513834639707,0.007223987351903947,0.9989537615352422,0.043745184831798935,-0.002893,-0.005301,-0.087347,0.354,-0.073,-9.43,-3.311e-05,1.52e-06,1.622e-05
1646352657.120493,18111,1646352657,115786314,,-0.011148594732950864,0.007155218006227385,0.9989074124785736,0.04481621342911813,-0.00459,-0.006129,-0.084023,0.407,-0.162,-9.498,-3.337e-05,1.25e-06,1.591e-05
1646352657.1456265,18112,1646352657,140795707,,-0.011065784661168827,0.007093661690622885,0.9988609505184473,0.04586970572213813,-0.002509,-0.005091,-0.083225,0.443,-0.061,-9.83,-3.311e-05,1.25e-06,1.533e-05
1646352657.1709695,18113,1646352657,165900707,,-0.01097429825791451,0.007039767600552015,0.9988154521480274,0.046879622440972366,-0.001441,-0.007811,-0.079976,0.507,-0.083,-9.51,-3.32e-05,1.07e-06,1.553e-05
1646352657.1965928,18114,1646352657,191091537,,-0.010865683136360917,0.006984577652748809,0.9987703748101364,0.047863253197131556,-0.001532,-0.010864,-0.077629,0.371,0.109,-9.41,-3.302e-05,1.52e-06,1.592e-05
1646352657.2204812,18115,1646352657,215916872,,-0.010747314396698774,0.006954714084785749,0.9987250834289308,0.04882965200707988,-0.001864,-0.012199,-0.075759,0.351,0.009,-9.353,-3.303e-05,9.7e-07,1.573e-05
1646352657.24638,18116,1646352657,241016387,,-0.010603109740738182,0.006922957490764855,0.998680874659864,0.04976100191933436,-0.001672,-0.014253,-0.073736,0.273,-0.006,-9.17,-3.32e-05,6.2e-07,1.613e-05
1646352657.2711082,18117,1646352657,266007900,,-0.010441342432109705,0.006898405358227986,0.9986376785323745,0.05065745144792518,0.000833,-0.013987,-0.072144,0.498,-0.017,-9.768,-3.338e-05,8.000000000000001e-07,1.582e-05
1646352657.2963164,18118,1646352657,291033506,,-0.010280257250324554,0.006864584264774395,0.9985950612529104,0.05152763758445683,0.000733,-0.012,-0.069824,0.568,-0.073,-9.58,-3.329e-05,9.8e-07,1.5620000000000003e-05
1646352657.3210688,18119,1646352657,315835237,,-0.010091964149645388,0.00685490843618619,0.9985535904040228,0.052363055498782424,0.003737,-0.013853,-0.066928,0.448,-0.004,-9.689,-3.337e-05,9.8e-07,1.601e-05
1646352657.3462076,18120,1646352657,340783596,,-0.009920896694119358,0.006854215269969191,0.9985129987587661,0.0531637738652349,0.002071,-0.014934,-0.062683,0.4,-0.07,-9.407,-3.345000000000001e-05,1.35e-06,1.62e-05
1646352657.3708005,18121,1646352657,366083621,,-0.009775685545473582,0.0068631184840668895,0.9984728167555074,0.05393855557124785,0.00199,-0.012058,-0.061744,0.22,-0.011,-9.21,-3.345000000000001e-05,1.44e-06,1.6000000000000003e-05
1646352657.3954666,18122,1646352657,390925884,,-0.009657202797150793,0.006864347729486142,0.9984327582856535,0.05469594451588956,-7e-06,-0.010598,-0.059228,0.263,-0.033,-9.284,-3.337e-05,1.25e-06,1.611e-05
1646352657.420632,18123,1646352657,415994167,,-0.009582890761642954,0.006858935214600108,0.998392692301006,0.055436045785400984,-0.000974,-0.009899,-0.058093,0.133,-0.128,-9.101,-3.328e-05,1.16e-06,1.592e-05
1646352657.4461515,18124,1646352657,440835475,,-0.00952699716290303,0.006836969949201487,0.9983520137091951,0.05617605263603346,-0.000387,-0.004729,-0.058317,0.33,-0.055,-9.695,-3.346e-05,1.07e-06,1.601e-05
1646352657.4711297,18125,1646352657,465765237,,-0.009496462828083896,0.006833587524065966,0.9983118867036024,0.056890211298601716,0.000304,-0.000957,-0.057985,0.412,-0.232,-9.697,-3.355e-05,8.900000000000001e-07,1.6000000000000003e-05
1646352657.4956806,18126,1646352657,490962505,,-0.009466943599780295,0.006812741774261784,0.9982713671038045,0.05760417649005084,-0.000697,-0.001901,-0.055681,0.473,-0.162,-9.862,-3.363e-05,9.9e-07,1.5700000000000002e-05
1646352657.5205421,18127,1646352657,516000032,,-0.009455508915507347,0.006783996747495216,0.9982312348423044,0.05830070775288132,-8.7e-05,0.000645,-0.055473,0.522,-0.217,-9.764,-3.372e-05,1.17e-06,1.6289999999999998e-05
1646352657.5461004,18128,1646352657,540956497,,-0.009445780952297736,0.0067289416471176654,0.9981918213057147,0.05897954259648754,-0.005163,-0.002915,-0.055051,0.388,-0.068,-9.396,-3.311e-05,1.07e-06,1.612e-05
1646352657.5726476,18129,1646352657,566573619,,-0.009419406195640913,0.006663880171750429,0.99815373920057,0.05963204178878059,-0.007788,-0.004748,-0.050796,0.431,-0.068,-9.396,-3.355e-05,8.900000000000001e-07,1.581e-05
1646352657.5960765,18130,1646352657,590905666,,-0.009369848956727683,0.006553333763529618,0.9981178799650373,0.06024912813652292,-0.011614,-0.009436,-0.048218,0.282,-0.072,-9.077,-3.363e-05,8.900000000000001e-07,1.5010000000000002e-05
1646352657.621484,18131,1646352657,615757226,,-0.009296594562701894,0.006406054804897311,0.9980837026153317,0.06083961180878293,-0.01036,-0.011048,-0.044581,0.384,-0.072,-9.343,-3.38e-05,1.17e-06,1.6080000000000002e-05
1646352657.6444814,18132,1646352657,640733957,,-0.00919867881292699,0.006239345122997114,0.9980516585262724,0.061394965538629914,-0.011508,-0.010173,-0.04194,0.328,-0.12,-9.323,-3.38e-05,1.17e-06,1.5890000000000002e-05
1646352657.6705446,18133,1646352657,666123628,,-0.009084825398045946,0.006053712267224815,0.9980217031430624,0.06191525313437569,-0.0125,-0.008502,-0.040898,0.44,0.041,-9.945,-3.38e-05,9.9e-07,1.6380000000000002e-05
1646352657.694438,18134,1646352657,690904140,,-0.008961523452972657,0.00588460084937277,0.9979930410133969,0.06240955583144071,-0.009631,-0.008432,-0.037185,0.484,0.013,-9.588,-3.424e-05,8.200000000000001e-07,1.5570000000000002e-05
1646352657.7203953,18135,1646352657,715773105,,-0.008828784694392095,0.005731929089846415,0.997966264807854,0.0628691645816088,-0.010105,-0.013197,-0.035489,0.341,0.166,-9.527,-3.415e-05,1.18e-06,1.5870000000000002e-05
1646352657.745985,18136,1646352657,740855455,,-0.008711591371608502,0.005614769474814629,0.9979410844913009,0.06329434748731305,-0.009737,-0.009863,-0.032027,0.326,0.149,-9.52,-3.4410000000000004e-05,8.200000000000001e-07,1.616e-05
1646352657.7712796,18137,1646352657,765900373,,-0.00861034477061367,0.005524595956102949,0.9979165000664475,0.06370243086087843,-0.004625,-0.010852,-0.031696,0.231,0.18,-9.216,-3.4399999999999996e-05,1.6299999999999999e-06,1.634e-05
1646352657.794154,18138,1646352657,790096521,,-0.0084995364220153,0.005450901164341983,0.9978939510138908,0.06407579954237087,-0.000849,-0.009905,-0.029899,0.251,0.19,-9.51,-3.415e-05,1.27e-06,1.596e-05
1646352657.8189888,18139,1646352657,815179347,,-0.008403577735302209,0.005421494141100848,0.9978730996156806,0.06441478359754674,0.000383,-0.006496,-0.025477,0.219,0.147,-9.321,-3.4070000000000004e-05,9e-07,1.558e-05
1646352657.8456907,18140,1646352657,840929031,,-0.00828914108490618,0.005408237097856265,0.9978527494503788,0.06474512742969642,0.004606,-0.010167,-0.02448,0.325,0.369,-9.745,-3.381e-05,9.9e-07,1.619e-05
1646352657.8713923,18141,1646352657,865975856,,-0.008215130905571156,0.005449556732824626,0.9978350137179264,0.06502383681516882,0.006223,-0.00496,-0.020829,0.356,0.205,-9.633,-3.389e-05,8.1e-07,1.569e-05
1646352657.8950858,18142,1646352657,890145778,,-0.008148906530679768,0.0055084642446749914,0.9978198694789571,0.06525917726279314,0.006805,-0.002639,-0.017537,0.267,0.312,-9.839,-3.363e-05,9.9e-07,1.56e-05
1646352657.9210045,18143,1646352657,916504859,,-0.008107829336955565,0.005586185257890227,0.9978066218447101,0.06545993462076571,0.007065,-0.001344,-0.014214,0.215,0.207,-9.619,-3.415e-05,8.1e-07,1.577e-05
1646352657.94303,18144,1646352657,940218687,,-0.008085054623188497,0.005655833233416504,0.9977972326525092,0.0655997404962132,0.007047,-0.001299,-0.010223,0.024,0.096,-9.279,-3.415e-05,8.1e-07,1.637e-05
1646352657.969995,18145,1646352657,965775251,,-0.008071167850696559,0.0057257661405301285,0.997790036663145,0.06570475315675188,0.005855,-0.004108,-0.006167,0.147,0.155,-9.582,-3.424e-05,5.4e-07,1.6270000000000002e-05
1646352657.9966066,18146,1646352657,990999221,,-0.008074360189519363,0.005805198229349305,0.9977854918495499,0.06576637921916895,0.008515,-0.002001,-0.003553,0.158,-0.047,-9.289,-3.424e-05,1.18e-06,1.616e-05
1646352658.0207987,18147,1646352658,16107797,,-0.008059656509336804,0.005892049951769733,0.9977821873830025,0.06581057837086696,0.008687,0.000631,-0.002529,0.299,-0.028,-9.763,-3.406e-05,9.9e-07,1.548e-05
1646352658.0464156,18148,1646352658,41067361,,-0.00804463176998255,0.005987256625431968,0.9977816936808009,0.06581130915928568,0.008603,0.001442,0.001371,0.375,-0.114,-9.672,-3.414e-05,1.8100000000000002e-06,1.5759999999999998e-05
1646352658.0716155,18149,1646352658,65900802,,-0.00801281959934009,0.006072539034296372,0.9977819708413981,0.06580317359824638,0.00894,0.00232,0.002146,0.381,-0.005,-9.647,-3.398e-05,9.9e-07,1.618e-05
1646352658.0960407,18150,1646352658,90891599,,-0.007964329299096067,0.006147759487881661,0.9977841678478728,0.0657687532512409,0.005028,-0.000867,0.003431,0.315,-0.068,-9.437,-3.4320000000000003e-05,1.36e-06,1.595e-05
1646352658.1208596,18151,1646352658,115781307,,-0.0079193937592678,0.00617060114555494,0.997787827650626,0.06571649622608272,-0.001371,-0.00216,0.003664,0.209,-0.081,-9.22,-3.4399999999999996e-05,1.54e-06,1.654e-05
1646352658.1463304,18152,1646352658,141097545,,-0.007876287346399554,0.006167187941216877,0.9977927899864907,0.06564661561352185,-0.001321,-0.004351,0.006385,0.123,0.004,-9.301,-3.4320000000000003e-05,1.27e-06,1.6550000000000002e-05
1646352658.170339,18153,1646352658,165825366,,-0.007853670434654863,0.006121112408632294,0.9978001522552467,0.06554165090224114,-0.002674,-0.003614,0.009566,0.081,0.025,-9.19,-3.4320000000000003e-05,1.6299999999999999e-06,1.635e-05
1646352658.1968777,18154,1646352658,191064596,,-0.007839339733377452,0.006084114175296469,0.9978090857700086,0.06541067697300414,0.001853,0.00299,0.014491,0.236,0.207,-9.772,-3.406e-05,1.36e-06,1.656e-05
1646352658.220795,18155,1646352658,216003179,,-0.00781515245997166,0.006063966105415017,0.997817969346935,0.06527979592078063,0.001059,0.002684,0.015824,0.376,0.141,-9.61,-3.4320000000000003e-05,1.45e-06,1.6150000000000003e-05
1646352658.2442074,18156,1646352658,240281343,,-0.00782575077996182,0.006054120214140954,0.9978321657750086,0.06506207956958122,0.00319,0.001017,0.019751,0.317,0.191,-9.741,-3.484e-05,1.37e-06,1.6819999999999998e-05
1646352658.2707796,18157,1646352658,265913486,,-0.007845369573855855,0.006044424297092751,0.9978496337636542,0.06479215622980593,0.000916,-0.00074,0.02186,0.217,0.267,-9.319,-3.5010000000000005e-05,1.28e-06,1.631e-05
1646352658.2965376,18158,1646352658,290966510,,-0.007864631579312852,0.006043151717775594,0.997869227319325,0.06448746433665159,0.002178,0.000764,0.025514,0.137,0.264,-9.311,-3.535e-05,1.92e-06,1.668e-05
1646352658.3222651,18159,1646352658,316042900,,-0.007876568295003189,0.006023548507153713,0.9978917073118305,0.06413904437669934,0.00189,-0.00231,0.030439,0.223,0.285,-9.302,-3.493e-05,1.01e-06,1.583e-05
1646352658.3461733,18160,1646352658,340883970,,-0.007888407810020799,0.006012026609106921,0.997919019886713,0.06371230890978573,0.001784,-0.00286,0.035554,0.007,0.242,-9.023,-3.579e-05,1.3e-06,1.6170000000000003e-05
1646352658.371336,18161,1646352658,366224050,,-0.007891240034836237,0.0060083086171071965,0.9979489328018541,0.06324204359375572,0.004415,-0.00112,0.039852,0.262,0.361,-9.76,-3.493e-05,1.1e-06,1.622e-05
1646352658.3956861,18162,1646352658,391012430,,-0.00787652431916135,0.006011654434152356,0.9979831012039861,0.06270207402382003,0.002522,0.000816,0.04495,0.334,0.242,-9.485,-3.535e-05,1.65e-06,1.619e-05
1646352658.4203072,18163,1646352658,415772199,,-0.0078457423263449,0.005996173562476002,0.9980199422836933,0.06211831480337346,0.001681,-0.000892,0.04945,0.2,0.395,-9.731,-3.571e-05,1.21e-06,1.618e-05
1646352658.4472628,18164,1646352658,441127538,,-0.007814878316859756,0.005988826656887657,0.9980612181787125,0.06145621530643465,0.001339,-4.3e-05,0.054734,0.211,0.306,-9.394,-3.588e-05,1.3e-06,1.636e-05
1646352658.4708512,18165,1646352658,465797424,,-0.007785911414777471,0.005954985408130551,0.9981053916580935,0.06074162391041124,0.000917,-0.001101,0.058503,0.008,0.337,-9.34,-3.587e-05,1.84e-06,1.6950000000000002e-05
1646352658.4956164,18166,1646352658,490751981,,-0.007741307659747444,0.0058936732775059794,0.9981519709841579,0.059983160899171384,-0.002649,-0.005309,0.064103,0.067,0.383,-9.484,-3.587e-05,1.7500000000000002e-06,1.665e-05
1646352658.5208833,18167,1646352658,515784263,,-0.007724137110867418,0.0058160868370570095,0.9982014673213109,0.05916368377119896,-0.006654,-0.004409,0.066764,-0.041,0.277,-9.276,-3.6309999999999996e-05,1.4000000000000001e-06,1.683e-05
1646352658.5454898,18168,1646352658,540939331,,-0.007707703585217006,0.005729350314261252,0.9982538973260224,0.05828312211803602,-0.004362,0.002287,0.072717,0.14,0.38,-9.834,-3.613e-05,1.76e-06,1.644e-05
1646352658.571768,18169,1646352658,565826654,,-0.007716052891257355,0.005669879454140417,0.9983081823086923,0.057350572187811165,-0.001061,0.003443,0.076203,0.236,0.348,-9.486,-3.622e-05,1.4900000000000001e-06,1.674e-05
1646352658.5967252,18170,1646352658,591140508,,-0.007716566548305071,0.0056005206844917076,0.9983666343399362,0.05633073943697266,-0.004106,0.000434,0.083604,0.169,0.529,-9.592,-3.613e-05,1.4900000000000001e-06,1.654e-05
1646352658.6208212,18171,1646352658,615995883,,-0.007742410611988196,0.005549633107059693,0.9984266215689677,0.05525882728279494,-0.00486,0.000953,0.089943,0.167,0.497,-9.332,-3.613e-05,1.85e-06,1.674e-05
1646352658.6457784,18172,1646352658,640923023,,-0.007761809033193884,0.005462693344706133,0.9984904445250141,0.05409940382475165,-0.008819,-0.000342,0.094651,-0.044,0.391,-9.099,-3.622e-05,1.4900000000000001e-06,1.664e-05
1646352658.671279,18173,1646352658,665896892,,-0.0077841595552891,0.0053228885716578925,0.9985568884808818,0.052869785176896424,-0.009154,0.001632,0.101814,0.09,0.361,-9.298,-3.562e-05,1.2000000000000002e-06,1.6080000000000002e-05
1646352658.6973445,18174,1646352658,691002845,,-0.007817189059869384,0.005147878314908259,0.9986268614591904,0.05154398583951729,-0.01315,0.002829,0.106991,0.14,0.508,-9.358,-3.553e-05,1.3800000000000001e-06,1.559e-05
1646352658.7207289,18175,1646352658,715773582,,-0.0078082887677439075,0.00493519587796302,0.998699084586171,0.050147910374309726,-0.016435,-0.00122,0.115336,0.267,0.573,-9.661,-3.587e-05,1.6600000000000002e-06,1.675e-05
1646352658.745952,18176,1646352658,740852117,,-0.007781323651708376,0.004729803548172537,0.9987732425439217,0.04867329800746719,-0.015576,-0.001772,0.120382,0.155,0.535,-9.599,-3.51e-05,9.2e-07,1.612e-05
1646352658.7710817,18177,1646352658,766030788,,-0.007745408100127708,0.004523481972324281,0.9988489586127548,0.0471201086843405,-0.014271,-0.001819,0.126789,0.119,0.63,-9.351,-3.587e-05,1.4800000000000002e-06,1.656e-05
1646352658.7957249,18178,1646352658,790976762,,-0.007699263047135602,0.004342500637091693,0.9989253546172845,0.04549725199921874,-0.015029,-0.004864,0.131164,0.048,0.536,-9.146,-3.5010000000000005e-05,1.56e-06,1.581e-05
1646352658.8220005,18179,1646352658,815994739,,-0.007652422570553609,0.004169931625400768,0.999001723756976,0.04381333164268132,-0.011757,-0.007442,0.136385,-0.079,0.478,-9.199,-3.4920000000000004e-05,1.92e-06,1.581e-05
1646352658.845958,18180,1646352658,840918779,,-0.0076214972277026385,0.0040241568793221785,0.9990764517622124,0.0420946846483779,-0.008575,-0.002012,0.137736,0.042,0.45,-9.718,-3.5010000000000005e-05,1.65e-06,1.601e-05
1646352658.870651,18181,1646352658,865753650,,-0.007606996997805168,0.003896311250201373,0.9991497588671908,0.040332514314773464,-0.00612,-0.003341,0.141879,0.127,0.499,-9.549,-3.5260000000000005e-05,2.19e-06,1.6780000000000002e-05
1646352658.8962102,18182,1646352658,890941381,,-0.0076172857114319105,0.0037955644270956696,0.9992203119747847,0.038553064548543424,-0.004293,0.002867,0.143358,0.205,0.525,-10.048,-3.4830000000000004e-05,1.91e-06,1.621e-05
1646352658.9207773,18183,1646352658,916020154,,-0.0076525682797379336,0.003721649069701163,0.9992886676910007,0.036738891535682494,-0.004594,0.004726,0.145889,0.213,0.404,-9.735,-3.5010000000000005e-05,1.46e-06,1.631e-05
1646352658.9475598,18184,1646352658,941176652,,-0.007704471975363912,0.0036656017431501275,0.9993538277876957,0.03491606165537443,-0.004104,0.003585,0.146523,0.209,0.499,-9.82,-3.5e-05,2.1000000000000002e-06,1.6000000000000003e-05
1646352658.971007,18185,1646352658,965929508,,-0.0077821355663810505,0.003618828337670148,0.9994159958237827,0.03307581804046305,-0.00227,0.007924,0.148713,0.193,0.558,-9.581,-3.509e-05,2.0100000000000002e-06,1.6100000000000002e-05
1646352658.9960933,18186,1646352658,990809917,,-0.007859536397015154,0.0035801606095877004,0.9994760999886325,0.031191917048278242,-0.00258,0.008252,0.15143,0.076,0.433,-9.217,-3.491e-05,2.28e-06,1.6400000000000002e-05
1646352659.020647,18187,1646352659,15921592,,-0.007945123050455737,0.003558706468326081,0.9995332815399539,0.029281900927989747,-0.001399,0.006929,0.155249,0.103,0.438,-9.281,-3.56e-05,2.65e-06,1.616e-05
1646352659.046143,18188,1646352659,41088104,,-0.0080228334081702,0.003510110692508286,0.9995884024920193,0.02731920332813829,-0.004754,0.004886,0.158371,0.057,0.413,-9.016,-3.508e-05,2.73e-06,1.6289999999999998e-05
1646352659.07158,18189,1646352659,65874099,,-0.008075056349138781,0.003433967863030808,0.9996412960711605,0.025303764914421892,-0.008041,0.005297,0.163529,0.222,0.38,-9.274,-3.516e-05,3.01e-06,1.6380000000000002e-05
1646352659.095872,18190,1646352659,90945720,,-0.008127644317426998,0.0033396137250528944,0.9996918023085046,0.023218285362841783,-0.010693,0.006655,0.169307,0.163,0.339,-9.372,-3.5e-05,2.28e-06,1.6400000000000002e-05
1646352659.1208549,18191,1646352659,116056203,,-0.008146277567065754,0.0031914758276281006,0.9997396968161301,0.02107109996735297,-0.013322,0.004294,0.173683,0.141,0.422,-9.479,-3.482e-05,2.46e-06,1.561e-05
1646352659.1458194,18192,1646352659,141016006,,-0.008173578331420035,0.003025418492749892,0.9997842617526067,0.01885389646728743,-0.013019,0.005097,0.18115,0.229,0.428,-9.523,-3.4660000000000004e-05,1.8200000000000002e-06,1.5240000000000001e-05
1646352659.1715066,18193,1646352659,166101694,,-0.008183436400213467,0.002823709421575307,0.9998248558770289,0.016592637049744383,-0.016343,0.003142,0.182201,0.21,0.375,-9.43,-3.508e-05,2.46e-06,1.6289999999999998e-05
1646352659.197463,18194,1646352659,190855741,,-0.008210533279025498,0.0025868182402969475,0.9998611221344247,0.014269967020099111,-0.019003,0.000745,0.186528,0.288,0.373,-9.544,-3.439e-05,2.2700000000000003e-06,1.594e-05
1646352659.2205744,18195,1646352659,216012477,,-0.008245901477642245,0.0023060051729470884,0.9998923904671712,0.01191196603459376,-0.023434,0.001157,0.190039,0.167,0.328,-9.431,-3.508e-05,2.83e-06,1.599e-05
1646352659.246089,18196,1646352659,240910530,,-0.008297763012712744,0.0019987399527478756,0.9999182690224101,0.009518794189019523,-0.023759,0.007824,0.192775,0.256,0.309,-9.701,-3.413e-05,2.6300000000000002e-06,1.5550000000000002e-05
1646352659.271352,18197,1646352659,265906095,,-0.008356956993922549,0.0016911576778934714,0.9999383861692188,0.007108102475928912,-0.024785,0.008637,0.192438,0.239,0.284,-9.538,-3.457e-05,2.36e-06,1.612e-05
1646352659.2955742,18198,1646352659,290891170,,-0.008414716471820259,0.0013833036322185978,0.9999526058911405,0.004697338531281116,-0.025132,0.008243,0.191676,0.291,0.332,-9.7,-3.422e-05,2.4500000000000003e-06,1.5550000000000002e-05
1646352659.321377,18199,1646352659,315934896,,-0.008462332929587063,0.0010750154772202682,0.9999610415666378,0.002269055327106474,-0.02396,0.005799,0.193666,0.086,0.36,-9.285,-3.379e-05,1.99e-06,1.568e-05
1646352659.3453555,18200,1646352659,341141939,,0.008508503323906545,-0.0008189384614877901,-0.9999634554235695,0.00015009443184145244,-0.020787,0.004649,0.192791,0.186,0.371,-9.416,-3.344e-05,2.16e-06,1.55e-05
1646352659.3706944,18201,1646352659,366051435,,0.008544825384013154,-0.0005888474203216521,-0.9999600188146202,0.0025690445961105736,-0.016496,-0.000116,0.192586,0.161,0.462,-9.43,-3.353e-05,2.43e-06,1.539e-05
1646352659.3961973,18202,1646352659,390769720,,0.00855416311871314,-0.00041114960826241285,-0.9999509330421678,0.00497883093068088,-0.015705,0.000374,0.194323,0.187,0.466,-9.482,-3.344e-05,2.6100000000000004e-06,1.5090000000000001e-05
1646352659.421397,18203,1646352659,416115283,,0.008562952083064778,-0.0002683155079617982,-0.9999360064518856,0.007388292053374157,-0.007209,-0.000167,0.193217,0.194,0.55,-9.391,-3.3350000000000004e-05,2.7e-06,1.599e-05
1646352659.445506,18204,1646352659,440753936,,0.008562633045401209,-0.00015170543370355568,-0.9999153301555687,0.009797490529290518,-0.006935,0.00055,0.192376,0.233,0.58,-9.448,-3.3010000000000004e-05,2.1499999999999997e-06,1.552e-05
1646352659.4710217,18205,1646352659,465977430,,0.008527326492063222,-7.027906898414597e-05,-0.9998889231384901,0.01222379436595374,-0.007175,-0.003033,0.193268,0.186,0.502,-9.041,-3.292e-05,2.51e-06,1.5720000000000002e-05
1646352659.4955478,18206,1646352659,490914106,,0.0084832058836617,-6.381789281606292e-06,-0.9998563139911569,0.0146760535984604,-0.004643,-0.004008,0.195735,0.241,0.576,-8.982,-3.318e-05,2.52e-06,1.531e-05
1646352659.519249,18207,1646352659,515937328,,0.008430098353496356,5.714897296696869e-05,-0.9998177604440305,0.017128224555647182,-0.003643,-0.00728,0.196976,0.137,0.611,-9.093,-3.3010000000000004e-05,2.51e-06,1.591e-05
1646352659.5441,18208,1646352659,541465759,,0.008368858202702011,7.684390056570992e-05,-0.9997727527409719,0.019606100686720244,-0.001045,-0.006071,0.199248,0.202,0.537,-9.287,-3.292e-05,2.69e-06,1.571e-05
1646352659.570951,18209,1646352659,566144227,,0.008308341811924998,6.155628008243277e-05,-0.9997210245855322,0.022109741491348252,0.001511,-0.002874,0.20116,0.21,0.5,-9.353,-3.308e-05,3.24e-06,1.5700000000000002e-05
1646352659.5955532,18210,1646352659,590958118,,0.008239659964415816,2.851968882075341e-05,-0.999662449546862,0.024639280757885983,0.001648,-0.004281,0.201826,0.244,0.455,-9.449,-3.292e-05,2.33e-06,1.523e-05
1646352659.6203904,18211,1646352659,615735530,,0.008189119934473374,-2.1621478582938377e-05,-0.9995966119564742,0.027194690885322628,0.002816,-0.003442,0.205383,0.185,0.504,-9.41,-3.3e-05,2.9700000000000004e-06,1.58e-05
1646352659.6462138,18212,1646352659,640712022,,0.008148392652426064,-9.785721733278989e-05,-0.9995239014444462,0.02975843682756008,0.006351,-0.002978,0.206368,0.158,0.357,-9.319,-3.266e-05,2.6e-06,1.573e-05
1646352659.6709776,18213,1646352659,665978431,,0.008108960326043354,-0.00020032537833724365,-0.999444034933287,0.032339228012489625,0.009219,-0.001332,0.2068,0.231,0.432,-9.526,-3.283e-05,3.05e-06,1.542e-05
1646352659.6966434,18214,1646352659,691069364,,0.008061088672799371,-0.00029451059413267676,-0.9993572554524702,0.03492861416411044,0.005584,-0.003468,0.208252,0.234,0.333,-9.462,-3.265e-05,3.3200000000000004e-06,1.5620000000000003e-05
1646352659.720519,18215,1646352659,716156005,,0.008031527759519267,-0.00039700984027841156,-0.9992636087426334,0.037517691662520634,0.002817,-0.001949,0.207532,0.213,0.324,-9.411,-3.257e-05,2.69e-06,1.5640000000000003e-05
1646352659.7458026,18216,1646352659,741116762,,0.00799242901012432,-0.0004652060078892899,-0.9991636739647155,0.04009809585529242,0.001074,-0.002558,0.206931,0.248,0.39,-9.646,-3.274e-05,3.14e-06,1.5320000000000002e-05
1646352659.770644,18217,1646352659,766070604,,0.007962827212388337,-0.000541952136372034,-0.9990569924796275,0.0426781612564222,0.003824,0.0012,0.206442,0.241,0.323,-9.649,-3.24e-05,2.68e-06,1.535e-05
1646352659.796522,18218,1646352659,791142225,,0.007951499678580096,-0.0006268503413155424,-0.998943890373055,0.04524913919465171,0.004759,0.004671,0.20409,0.22,0.344,-9.694,-3.222e-05,2.86e-06,1.5260000000000003e-05
1646352659.8211825,18219,1646352659,815950870,,0.007931117103185139,-0.0006947252568208438,-0.998823823958041,0.04782868837998418,0.004783,0.003159,0.205648,0.213,0.402,-9.624,-3.222e-05,2.86e-06,1.5260000000000003e-05
1646352659.8457298,18220,1646352659,840968132,,0.007946865587094737,-0.0007785181363355552,-0.99869768144605,0.05039029977223824,0.006766,0.002302,0.205061,0.189,0.396,-9.553,-3.222e-05,3.04e-06,1.4860000000000002e-05
1646352659.8705044,18221,1646352659,866068840,,0.00799796001608653,-0.0008603152094322105,-0.9985642224802967,0.05296023107617231,0.008316,0.005073,0.206085,0.187,0.351,-9.657,-3.214e-05,2.95e-06,1.5260000000000003e-05
1646352659.8966258,18222,1646352659,891606807,,0.008065499814385412,-0.0009147453673977123,-0.9984240243653688,0.0555299786036198,0.008095,0.010123,0.206875,0.297,0.456,-9.868,-3.196e-05,3.13e-06,1.527e-05
1646352659.9227304,18223,1646352659,916406631,,0.008132383211676067,-0.00095119677262542,-0.9982756992174482,0.0581256218883986,0.003024,0.008806,0.208507,0.401,0.448,-9.802,-3.187e-05,3.6700000000000004e-06,1.497e-05
1646352659.9465663,18224,1646352659,940995931,,0.008217477946719775,-0.000994812667129482,-0.9981194104015642,0.060738175668901995,0.003886,0.006848,0.20975,0.173,0.375,-9.157,-3.205e-05,3.13e-06,1.5260000000000003e-05
1646352659.9706056,18225,1646352659,965831279,,0.008301777156231732,-0.0010203540202493137,-0.9979546331631188,0.06337656918757059,0.007388,0.003568,0.211951,0.251,0.478,-9.257,-3.221e-05,3.68e-06,1.5240000000000001e-05
1646352659.9952128,18226,1646352659,990842342,,0.008385719282121305,-0.0010365292842270846,-0.9977811538448559,0.06604070223121862,0.002336,0.003524,0.214279,0.292,0.368,-9.399,-3.205e-05,3.22e-06,1.5060000000000001e-05
1646352660.0213392,18227,1646352660,15763521,,0.008468043467041062,-0.0010258504650246373,-0.9975981831674199,0.06873939781323739,-0.003712,0.005333,0.217956,0.453,0.419,-9.42,-3.1950000000000004e-05,3.85e-06,1.5160000000000002e-05
1646352660.0463722,18228,1646352660,41492938,,0.008532374326484444,-0.0010069791344908168,-0.9974055667008317,0.0714725128673118,-0.003491,0.005679,0.220669,0.458,0.334,-9.343,-3.2040000000000005e-05,3.95e-06,1.515e-05
1646352660.071753,18229,1646352660,66026210,,0.008593451751803486,-0.0009440266341973542,-0.997203557745804,0.0742315688896191,-0.004408,0.007107,0.22122,0.432,0.345,-9.371,-3.221e-05,3.68e-06,1.544e-05
1646352660.09577,18230,1646352660,91094732,,0.008648884911385792,-0.0008109899909014623,-0.9969926265196142,0.07700806289308589,-0.015151,0.007221,0.223067,0.453,0.333,-9.519,-3.1950000000000004e-05,3.6700000000000004e-06,1.546e-05
1646352660.1207619,18231,1646352660,115799188,,0.008702958890596583,-0.0006688025868930571,-0.9967725623330872,0.0798014422775699,-0.009405,0.006133,0.224433,0.398,0.44,-9.506,-3.187e-05,3.49e-06,1.527e-05
1646352660.1468902,18232,1646352660,141396999,,0.008757029048919349,-0.0005349397029137826,-0.9965439285319955,0.08260282554348575,-0.00773,0.002919,0.22583,0.459,0.354,-9.21,-3.1950000000000004e-05,3.9399999999999995e-06,1.535e-05
1646352660.1727154,18233,1646352660,166515350,,0.008793022780267796,-0.00040234685099114467,-0.9963083012891403,0.08539490412047421,-0.007457,-0.002743,0.2234,0.377,0.416,-9.215,-3.187e-05,3.7600000000000004e-06,1.5160000000000002e-05
1646352660.1955714,18234,1646352660,190783739,,0.00883780144969266,-0.00027755716219330783,-0.9960655293809444,0.08817753345731809,-0.009185,-0.001178,0.223757,0.67,0.321,-9.481,-3.169e-05,4.12e-06,1.517e-05
1646352660.22103,18235,1646352660,215747356,,0.008857467005318177,-0.000172360691167221,-0.9958159914463177,0.09095068306411547,-0.009589,-0.001563,0.220915,0.561,0.26,-9.538,-3.16e-05,4.03e-06,1.4979999999999999e-05
1646352660.2464592,18236,1646352660,240948677,,0.008857602280034427,-5.1549704732828535e-05,-0.9955613317941046,0.0936972510846801,-0.011705,-0.001888,0.220035,0.595,0.289,-9.595,-3.169e-05,3.7600000000000004e-06,1.527e-05
1646352660.2713501,18237,1646352660,265950918,,0.008866666839214832,6.12613401350904e-05,-0.9953006950786518,0.096425644110698,-0.009866,0.004352,0.218259,0.542,0.286,-9.531,-3.1519999999999996e-05,4.12e-06,1.4979999999999999e-05
1646352660.2971852,18238,1646352660,291751861,,0.008875184087413534,0.00017388863096648422,-0.9950351683646208,0.09912726460338384,-0.005528,0.001392,0.21755,0.402,0.346,-9.27,-3.126e-05,4.0200000000000005e-06,1.49e-05
1646352660.3206942,18239,1646352660,316282987,,0.008901408092552647,0.0002795807343807786,-0.9947630383308517,0.10181937114004917,-0.005235,0.004013,0.215359,0.534,0.415,-9.345,-3.133000000000001e-05,4.84e-06,1.508e-05
1646352660.3458369,18240,1646352660,340821027,,0.008915721107296869,0.00041030534346681903,-0.994486419000427,0.10448494623805359,-0.015039,-0.00093,0.214831,0.451,0.292,-9.158,-3.134e-05,4.39e-06,1.508e-05
1646352660.3707354,18241,1646352660,366339683,,0.00894675419711232,0.0005429000011773742,-0.9942034254048107,0.10714107411383457,-0.013047,0.001414,0.213135,0.593,0.373,-9.55,-3.134e-05,4.66e-06,1.518e-05
1646352660.3954573,18242,1646352660,390857696,,0.009003162953549835,0.0006785370702348205,-0.9939130903451364,0.10979640925302121,-0.00998,0.004772,0.212667,0.555,0.311,-9.587,-3.117e-05,4.2000000000000004e-06,1.5e-05
1646352660.4213893,18243,1646352660,415730953,,0.009050260939662089,0.0008132600464465475,-0.993618668230738,0.11242496843849042,-0.008795,0.003424,0.210257,0.347,0.31,-9.553,-3.108e-05,4.4699999999999996e-06,1.5e-05
1646352660.445843,18244,1646352660,440878868,,0.009117057674709822,0.0009242390346679003,-0.9933171444628133,0.11505249044590576,-0.007089,0.006802,0.2119,0.591,0.341,-9.647,-3.0980000000000005e-05,5.01e-06,1.5490000000000002e-05
1646352660.470639,18245,1646352660,465906620,,0.009176745092863358,0.001016977748733636,-0.993011837188975,0.11765306756874698,-0.006156,0.00411,0.209599,0.482,0.332,-9.297,-3.116e-05,4.56e-06,1.539e-05
1646352660.4955788,18246,1646352660,490775108,,0.00923706793991168,0.0011012912126969832,-0.99270077087627,0.1202440985462389,-0.00467,0.002195,0.20807,0.525,0.413,-9.723,-3.0730000000000006e-05,4.83e-06,1.561e-05
1646352660.5214622,18247,1646352660,516236543,,0.009309980788289084,0.0011521946489806937,-0.9923850387293686,0.12281665852530788,-0.004185,0.004008,0.206642,0.461,0.351,-9.56,-3.116e-05,4.74e-06,1.558e-05
1646352660.5473206,18248,1646352660,541719436,,0.009372971357199717,0.0012108010011663776,-0.9920659867785815,0.12536251132580242,-0.004226,0.001136,0.205968,0.354,0.25,-9.43,-3.0730000000000006e-05,4.3700000000000005e-06,1.551e-05
1646352660.5702634,18249,1646352660,565760374,,0.009435733082383872,0.001269655546812346,-0.9917415139277145,0.12789888376508737,-0.001214,0.004842,0.205365,0.53,0.26,-9.658,-3.0730000000000006e-05,4.4600000000000005e-06,1.5220000000000002e-05
1646352660.5953526,18250,1646352660,590798854,,0.009487373376912508,0.0013446726565896387,-0.9914151625968838,0.13039998840049033,-0.00776,0.001007,0.201617,0.494,0.188,-9.225,-3.0730000000000006e-05,4.56e-06,1.4920000000000001e-05
1646352660.6206768,18251,1646352660,615757942,,0.009524272713720416,0.0014618760852900307,-0.9910848374511915,0.13288339295010196,-0.011972,0.002726,0.198767,0.437,0.3,-9.484,-3.0640000000000005e-05,5.1e-06,1.541e-05
1646352660.6460893,18252,1646352660,640748023,,0.009566941413936603,0.0015976616680038998,-0.9907493495295852,0.1353574804577905,-0.013686,0.004914,0.198091,0.522,0.219,-9.369,-3.0550000000000004e-05,5.19e-06,1.551e-05
1646352660.6704452,18253,1646352660,665904998,,0.009595583338285219,0.0017667863049486805,-0.9904113008848885,0.13780514622485412,-0.010924,0.00124,0.197358,0.41,0.319,-9.283,-3.056e-05,4.4600000000000005e-06,1.552e-05
1646352660.6957073,18254,1646352660,690775871,,0.009601272175991781,0.001968173289405235,-0.9900672836694018,0.14025232858672237,-0.013759,0.000482,0.197317,0.643,0.183,-9.562,-3.15e-05,5.11e-06,1.2980000000000001e-05
1646352660.720295,18255,1646352660,715860366,,0.00959242564001834,0.0022028166726385783,-0.9897184413725336,0.14269036329118492,-0.02318,-0.000643,0.196742,0.491,0.128,-9.461,-3.099e-05,4.92e-06,1.3510000000000001e-05
1646352660.7455568,18256,1646352660,740743637,,0.0095911371127541,0.002438609554156151,-0.9893647299702629,0.14511889733317074,-0.015698,0.002819,0.195163,0.557,0.342,-9.44,-3.081e-05,5.01e-06,1.3420000000000002e-05
1646352660.7684796,18257,1646352660,765839576,,0.009593968850226165,0.002639633872438359,-0.9890089679579447,0.1475203355252464,-0.012618,-0.000462,0.193194,0.408,0.303,-9.154,-3.0890000000000004e-05,5.46e-06,1.3900000000000002e-05
1646352660.7935636,18258,1646352660,790741205,,0.009581291931833665,0.0028206465064277847,-0.9886501842576361,0.14990348883713428,-0.010695,-0.000796,0.192465,0.339,0.401,-9.277,-3.0550000000000004e-05,5e-06,1.4130000000000002e-05
1646352660.8211246,18259,1646352660,815835714,,0.009563238747131053,0.0029741600347194972,-0.9882897846782485,0.15225964776451587,-0.009243,-0.002892,0.189802,0.579,0.327,-9.697,-3.028e-05,5.72e-06,1.473e-05
1646352660.8463144,18260,1646352660,841099262,,0.00952872382260993,0.0031159508727231387,-0.9879293513893839,0.1545803704738169,-0.017272,-0.004784,0.185784,0.468,0.235,-9.416,-2.994e-05,5.1700000000000005e-06,1.4950000000000001e-05
1646352660.8719702,18261,1646352660,866053581,,0.009501015935155495,0.0032670849382820232,-0.987571551893649,0.15684861090419552,-0.012766,-0.000184,0.181887,0.369,0.277,-9.668,-2.995e-05,4.9900000000000005e-06,1.505e-05
1646352660.896273,18262,1646352660,890875101,,0.009464168637471975,0.003416388904149205,-0.9872141691242698,0.15908155794791112,-0.012792,-0.00348,0.181011,0.479,0.263,-9.447,-2.995e-05,4.9900000000000005e-06,1.4950000000000001e-05
1646352660.921774,18263,1646352660,916024208,,0.00940255824013442,0.003605458855448649,-0.9868573705044988,0.16127964175905393,-0.013366,-0.003337,0.175713,0.337,0.334,-9.311,-2.986e-05,5.1700000000000005e-06,1.545e-05
1646352660.9467065,18264,1646352660,941078186,,0.009334529351359871,0.003775301005663225,-0.9865015081682996,0.16344230800430995,-0.01209,-0.008309,0.175594,0.522,0.404,-9.578,-2.96e-05,5.08e-06,1.527e-05
1646352660.9733272,18265,1646352660,966040611,,0.009277331980345638,0.003929014138513992,-0.9861423088581042,0.16559541249452936,-0.012417,-0.006198,0.172567,0.501,0.413,-9.555,-2.986e-05,5.2600000000000005e-06,1.4860000000000002e-05
1646352660.9955215,18266,1646352660,990856170,,0.009239962126458704,0.004014815635801763,-0.9857844414364225,0.16771266910162935,-0.003291,-0.002932,0.171403,0.378,0.549,-9.829,-2.9680000000000004e-05,5.44e-06,1.5260000000000003e-05
1646352661.0213232,18267,1646352661,15787839,,0.009231357224726046,0.004034561745390419,-0.9854236141802613,0.16981991924160122,-0.000234,-0.001794,0.171222,0.501,0.42,-9.362,-2.959e-05,5.62e-06,1.5060000000000001e-05
1646352661.0458217,18268,1646352661,40802001,,0.009232806790986479,0.004047193093331794,-0.9850582300004777,0.17192631856452928,-0.001598,0.001253,0.170585,0.387,0.381,-9.425,-2.9420000000000003e-05,5.71e-06,1.527e-05
1646352661.070815,18269,1646352661,66090583,,0.009241354394423909,0.004069879807954398,-0.9846897384692422,0.17402342486194428,-0.001375,0.000983,0.16992,0.533,0.443,-9.728,-2.951e-05,5.71e-06,1.5070000000000001e-05
1646352661.096325,18270,1646352661,91110467,,0.009267968178256952,0.0041400988735500015,-0.9843178746441771,0.17611157259854993,-0.006104,0.002764,0.168317,0.499,0.409,-9.679,-2.959e-05,5.62e-06,1.5160000000000002e-05
1646352661.1204762,18271,1646352661,115750312,,0.009302912099552717,0.004212003487777432,-0.9839414893647654,0.17819893478843832,-0.002507,0.000835,0.169334,0.288,0.464,-9.324,-2.951e-05,5.71e-06,1.497e-05
1646352661.1456873,18272,1646352661,140759944,,0.009337592496453415,0.004284074620428836,-0.9835606722031406,0.18028549627278112,-0.002828,0.001511,0.168751,0.383,0.418,-9.233,-2.9680000000000004e-05,5.62e-06,1.4960000000000002e-05
1646352661.1712139,18273,1646352661,165807008,,0.009399378006981917,0.0043524227693831265,-0.9831767840519515,0.1823626041993823,-0.001428,0.002682,0.169075,0.435,0.558,-9.596,-2.8990000000000002e-05,5.3400000000000005e-06,1.52e-05
1646352661.1957912,18274,1646352661,190795421,,0.00947057327675629,0.004369591990439597,-0.9827887312893047,0.18443840315510615,0.001983,0.002121,0.169128,0.569,0.331,-9.18,-2.9420000000000003e-05,5.53e-06,1.4580000000000003e-05
1646352661.220457,18275,1646352661,215842962,,0.009533202691850932,0.004385370955115391,-0.9823980090810384,0.18650479436634929,0.001961,0.004887,0.169717,0.562,0.361,-9.468,-2.9330000000000002e-05,5.62e-06,1.5470000000000003e-05
1646352661.244616,18276,1646352661,241037845,,0.009597794584178186,0.0044373562104295695,-0.9820026911617245,0.18857069433003798,-0.004821,0.003636,0.167827,0.502,0.157,-9.373,-2.9160000000000005e-05,5.4300000000000005e-06,1.5190000000000002e-05
1646352661.2686255,18277,1646352661,265762805,,0.00966943960390024,0.004544186499790253,-0.9816059265891105,0.19061914172489475,-0.010627,0.005601,0.168167,0.239,0.207,-9.352,-2.907e-05,5.7900000000000005e-06,1.529e-05
1646352661.2963843,18278,1646352661,290736675,,0.009732355497611665,0.004693977635808198,-0.9812080312222816,0.1926500643532639,-0.005468,0.0115,0.165343,0.57,0.323,-9.774,-2.9420000000000003e-05,5.71e-06,1.5070000000000001e-05
1646352661.3206387,18279,1646352661,315707445,,0.009832411772759071,0.004833551230441486,-0.9808090090451237,0.19466290924867022,-0.009467,0.009563,0.161998,0.573,0.247,-9.313,-2.925e-05,5.71e-06,1.4979999999999999e-05
1646352661.3459218,18280,1646352661,340875864,,0.009950893682410672,0.0049681694303010645,-0.9804108254010376,0.1966492065681659,-0.009008,0.006193,0.160123,0.293,0.243,-9.487,-2.9160000000000005e-05,5.61e-06,1.5090000000000001e-05
1646352661.3709407,18281,1646352661,366458415,,0.010079446780788794,0.005051621317032466,-0.9800157839301816,0.198599972614233,0.000543,0.013087,0.160245,0.63,0.409,-9.749,-2.907e-05,6.0600000000000004e-06,1.538e-05
1646352661.3974452,18282,1646352661,391397953,,0.010245692610523513,0.005080832439156754,-0.9796203495149356,0.20053224613735157,0.004568,0.011633,0.157187,0.556,0.348,-9.36,-2.898e-05,6.0600000000000004e-06,1.5090000000000001e-05
1646352661.4218118,18283,1646352661,415832281,,0.010405260854676338,0.00510004406713448,-0.9792282889667642,0.20242944001375648,0.002545,0.006867,0.154588,0.517,0.341,-9.699,-2.9330000000000002e-05,5.8e-06,1.5470000000000003e-05
1646352661.4457583,18284,1646352661,440809488,,0.010558166988817758,0.005109292160336785,-0.9788380243266279,0.20430012818351415,-0.000828,0.007259,0.151021,0.477,0.134,-9.574,-2.8990000000000002e-05,5.7000000000000005e-06,1.5490000000000002e-05
1646352661.4710343,18285,1646352661,465795755,,0.010705991642966947,0.005144105016940889,-0.9784566208590018,0.20611055534275574,0.001252,0.015808,0.145957,0.41,0.42,-9.601,-2.9060000000000003e-05,6.700000000000001e-06,1.508e-05
1646352661.4957728,18286,1646352661,491045475,,0.010871554652530844,0.005138145304030681,-0.978081037079127,0.20787711193994152,0.005748,0.013732,0.142451,0.482,0.284,-9.211,-2.8710000000000005e-05,6.87e-06,1.5190000000000002e-05
1646352661.5208156,18287,1646352661,515873432,,0.011063740556851021,0.00509302587040877,-0.9777168816282226,0.20957422100906978,0.007474,0.012894,0.136374,0.289,0.204,-9.336,-2.8810000000000004e-05,6.15e-06,1.52e-05
1646352661.5462797,18288,1646352661,540925264,,0.011283297393136422,0.004964650836577711,-0.9773592927948014,0.21122701586126424,0.018182,0.014872,0.13654,0.481,0.242,-9.458,-2.8810000000000004e-05,6.15e-06,1.54e-05
1646352661.5702543,18289,1646352661,565716981,,0.011481750541141363,0.004813709810032129,-0.9770122662429735,0.21281924070239697,0.017215,0.015147,0.129998,0.654,0.153,-9.47,-2.889e-05,6.4199999999999995e-06,1.568e-05
1646352661.595755,18290,1646352661,590880155,,0.011662052128178583,0.004667601744959766,-0.9766739945472771,0.2143597872950417,0.013102,0.005384,0.125079,0.528,0.073,-9.544,-2.88e-05,6.88e-06,1.5090000000000001e-05
1646352661.620441,18291,1646352661,615901231,,0.011828947901602995,0.004545030216836095,-0.9763464241763888,0.21584040096758664,0.008559,0.007305,0.120908,0.592,-0.047,-9.584,-2.889e-05,6.4199999999999995e-06,1.4890000000000001e-05
1646352661.6468313,18292,1646352661,640969276,,0.011969024696823085,0.0044251793366048685,-0.9760282432151757,0.2172694840099348,0.011228,0.007804,0.117106,0.658,-0.055,-9.492,-2.88e-05,6.6e-06,1.45e-05
1646352661.6708932,18293,1646352661,665698766,,0.012084158425798327,0.004299392335976312,-0.9757197234951135,0.2186469975172331,0.009601,0.00262,0.111125,0.359,-0.14,-9.133,-2.898e-05,6.519999999999999e-06,1.4979999999999999e-05
1646352661.695894,18294,1646352661,690716266,,0.012142296072474842,0.004151142083415544,-0.9754254069349271,0.2199559232467348,0.010784,0.000649,0.106668,0.524,-0.09,-9.45,-2.8720000000000003e-05,6.6e-06,1.49e-05
1646352661.72066,18295,1646352661,715881824,,0.012163128090268793,0.004011822113630721,-0.9751393336920132,0.2212221586665427,0.006882,0.001305,0.103576,0.67,-0.207,-9.238,-2.8270000000000002e-05,5.71e-06,1.5620000000000003e-05
1646352661.7458215,18296,1646352661,740999698,,0.012136219179441477,0.003887636959479337,-0.9748656311144043,0.2224288644371817,0.006115,-0.005493,0.095752,0.401,-0.294,-9.091,-2.819e-05,5.44e-06,1.621e-05
1646352661.770963,18297,1646352661,765786886,,0.012070693699773706,0.0038163341040198424,-0.9746041687508881,0.2235764929526428,-0.000602,-0.011562,0.091147,0.448,-0.451,-9.445,-2.8270000000000002e-05,6.25e-06,1.59e-05
1646352661.7954423,18298,1646352661,790744543,,0.011991924179480183,0.003803459479466098,-0.9743587583961941,0.22464803000936465,-0.005347,-0.006721,0.08621,0.453,-0.335,-9.702,-2.8270000000000002e-05,5.8e-06,1.571e-05
1646352661.8203957,18299,1646352661,815725564,,0.011930397800454361,0.003793730686608158,-0.9741237648556793,0.22566826085915903,0.005222,-0.002971,0.081697,0.239,-0.221,-9.548,-2.8020000000000003e-05,5.8800000000000005e-06,1.573e-05
1646352661.8454185,18300,1646352661,840742588,,0.011873091505526795,0.0037661543746015293,-0.9739016107620915,0.22662854704192015,0.002906,-0.005281,0.075983,0.351,-0.178,-9.398,-2.828e-05,5.44e-06,1.5720000000000002e-05
